{
    "_id" : ObjectId("673e5ac6909e0611d9239b50"),
    "index" : NumberInt(0),
    "Unnamed: 0" : NumberInt(1),
    "codigo_ibge" : NumberInt(3100104),
    "nome" : "Abadia dos Dourados",
    "latitude" : -18.4831,
    "longitude" : -47.3916,
    "capital" : NumberInt(0),
    "codigo_uf" : NumberInt(31),
    "siafi_id" : NumberInt(4001),
    "ddd" : NumberInt(34),
    "fuso_horario" : "America/Sao_Paulo"
}
{
    "_id" : ObjectId("673e5ac6909e0611d9239b51"),
    "index" : NumberInt(1),
    "Unnamed: 0" : NumberInt(3),
    "codigo_ibge" : NumberInt(3100203),
    "nome" : "Abaeté",
    "latitude" : -19.1551,
    "longitude" : -45.4444,
    "capital" : NumberInt(0),
    "codigo_uf" : NumberInt(31),
    "siafi_id" : NumberInt(4003),
    "ddd" : NumberInt(37),
    "fuso_horario" : "America/Sao_Paulo"
}
{
    "_id" : ObjectId("673e5ac6909e0611d9239b52"),
    "index" : NumberInt(2),
    "Unnamed: 0" : NumberInt(12),
    "codigo_ibge" : NumberInt(3100302),
    "nome" : "Abre Campo",
    "latitude" : -20.2996,
    "longitude" : -42.4743,
    "capital" : NumberInt(0),
    "codigo_uf" : NumberInt(31),
    "siafi_id" : NumberInt(4005),
    "ddd" : NumberInt(31),
    "fuso_horario" : "America/Sao_Paulo"
}
{
    "_id" : ObjectId("673e5ac6909e0611d9239b53"),
    "index" : NumberInt(3),
    "Unnamed: 0" : NumberInt(15),
    "codigo_ibge" : NumberInt(3100401),
    "nome" : "Acaiaca",
    "latitude" : -20.359,
    "longitude" : -43.1439,
    "capital" : NumberInt(0),
    "codigo_uf" : NumberInt(31),
    "siafi_id" : NumberInt(4007),
    "ddd" : NumberInt(31),
    "fuso_horario" : "America/Sao_Paulo"
}
{
    "_id" : ObjectId("673e5ac6909e0611d9239b54"),
    "index" : NumberInt(4),
    "Unnamed: 0" : NumberInt(29),
    "codigo_ibge" : NumberInt(3100500),
    "nome" : "Açucena",
    "latitude" : -19.0671,
    "longitude" : -42.5419,
    "capital" : NumberInt(0),
    "codigo_uf" : NumberInt(31),
    "siafi_id" : NumberInt(4009),
    "ddd" : NumberInt(33),
    "fuso_horario" : "America/Sao_Paulo"
}
{
    "_id" : ObjectId("673e5ac6909e0611d9239b55"),
    "index" : NumberInt(5),
    "Unnamed: 0" : NumberInt(46),
    "codigo_ibge" : NumberInt(3100609),
    "nome" : "Água Boa",
    "latitude" : -17.9914,
    "longitude" : -42.3806,
    "capital" : NumberInt(0),
    "codigo_uf" : NumberInt(31),
    "siafi_id" : NumberInt(4011),
    "ddd" : NumberInt(33),
    "fuso_horario" : "America/Sao_Paulo"
}
{
    "_id" : ObjectId("673e5ac6909e0611d9239b56"),
    "index" : NumberInt(6),
    "Unnamed: 0" : NumberInt(52),
    "codigo_ibge" : NumberInt(3100708),
    "nome" : "Água Comprida",
    "latitude" : -20.0576,
    "longitude" : -48.1069,
    "capital" : NumberInt(0),
    "codigo_uf" : NumberInt(31),
    "siafi_id" : NumberInt(4013),
    "ddd" : NumberInt(34),
    "fuso_horario" : "America/Sao_Paulo"
}
{
    "_id" : ObjectId("673e5ac6909e0611d9239b57"),
    "index" : NumberInt(7),
    "Unnamed: 0" : NumberInt(63),
    "codigo_ibge" : NumberInt(3100807),
    "nome" : "Aguanil",
    "latitude" : -20.9439,
    "longitude" : -45.3915,
    "capital" : NumberInt(0),
    "codigo_uf" : NumberInt(31),
    "siafi_id" : NumberInt(4015),
    "ddd" : NumberInt(35),
    "fuso_horario" : "America/Sao_Paulo"
}
{
    "_id" : ObjectId("673e5ac6909e0611d9239b58"),
    "index" : NumberInt(8),
    "Unnamed: 0" : NumberInt(70),
    "codigo_ibge" : NumberInt(3100906),
    "nome" : "Águas Formosas",
    "latitude" : -17.0802,
    "longitude" : -40.9384,
    "capital" : NumberInt(0),
    "codigo_uf" : NumberInt(31),
    "siafi_id" : NumberInt(4017),
    "ddd" : NumberInt(33),
    "fuso_horario" : "America/Sao_Paulo"
}
{
    "_id" : ObjectId("673e5ac6909e0611d9239b59"),
    "index" : NumberInt(9),
    "Unnamed: 0" : NumberInt(74),
    "codigo_ibge" : NumberInt(3101003),
    "nome" : "Águas Vermelhas",
    "latitude" : -15.7431,
    "longitude" : -41.4571,
    "capital" : NumberInt(0),
    "codigo_uf" : NumberInt(31),
    "siafi_id" : NumberInt(4019),
    "ddd" : NumberInt(33),
    "fuso_horario" : "America/Sao_Paulo"
}
{
    "_id" : ObjectId("673e5ac6909e0611d9239b5a"),
    "index" : NumberInt(10),
    "Unnamed: 0" : NumberInt(81),
    "codigo_ibge" : NumberInt(3101102),
    "nome" : "Aimorés",
    "latitude" : -19.5007,
    "longitude" : -41.0746,
    "capital" : NumberInt(0),
    "codigo_uf" : NumberInt(31),
    "siafi_id" : NumberInt(4021),
    "ddd" : NumberInt(33),
    "fuso_horario" : "America/Sao_Paulo"
}
{
    "_id" : ObjectId("673e5ac6909e0611d9239b5b"),
    "index" : NumberInt(11),
    "Unnamed: 0" : NumberInt(84),
    "codigo_ibge" : NumberInt(3101201),
    "nome" : "Aiuruoca",
    "latitude" : -21.9736,
    "longitude" : -44.6042,
    "capital" : NumberInt(0),
    "codigo_uf" : NumberInt(31),
    "siafi_id" : NumberInt(4023),
    "ddd" : NumberInt(35),
    "fuso_horario" : "America/Sao_Paulo"
}
{
    "_id" : ObjectId("673e5ac6909e0611d9239b5c"),
    "index" : NumberInt(12),
    "Unnamed: 0" : NumberInt(86),
    "codigo_ibge" : NumberInt(3101300),
    "nome" : "Alagoa",
    "latitude" : -22.171,
    "longitude" : -44.6413,
    "capital" : NumberInt(0),
    "codigo_uf" : NumberInt(31),
    "siafi_id" : NumberInt(4025),
    "ddd" : NumberInt(35),
    "fuso_horario" : "America/Sao_Paulo"
}
{
    "_id" : ObjectId("673e5ac6909e0611d9239b5d"),
    "index" : NumberInt(13),
    "Unnamed: 0" : NumberInt(94),
    "codigo_ibge" : NumberInt(3101409),
    "nome" : "Albertina",
    "latitude" : -22.2018,
    "longitude" : -46.6139,
    "capital" : NumberInt(0),
    "codigo_uf" : NumberInt(31),
    "siafi_id" : NumberInt(4027),
    "ddd" : NumberInt(35),
    "fuso_horario" : "America/Sao_Paulo"
}
{
    "_id" : ObjectId("673e5ac6909e0611d9239b5e"),
    "index" : NumberInt(14),
    "Unnamed: 0" : NumberInt(106),
    "codigo_ibge" : NumberInt(3101508),
    "nome" : "Além Paraíba",
    "latitude" : -21.8797,
    "longitude" : -42.7176,
    "capital" : NumberInt(0),
    "codigo_uf" : NumberInt(31),
    "siafi_id" : NumberInt(4029),
    "ddd" : NumberInt(32),
    "fuso_horario" : "America/Sao_Paulo"
}
{
    "_id" : ObjectId("673e5ac6909e0611d9239b5f"),
    "index" : NumberInt(15),
    "Unnamed: 0" : NumberInt(110),
    "codigo_ibge" : NumberInt(3101607),
    "nome" : "Alfenas",
    "latitude" : -21.4256,
    "longitude" : -45.9477,
    "capital" : NumberInt(0),
    "codigo_uf" : NumberInt(31),
    "siafi_id" : NumberInt(4031),
    "ddd" : NumberInt(35),
    "fuso_horario" : "America/Sao_Paulo"
}
{
    "_id" : ObjectId("673e5ac6909e0611d9239b60"),
    "index" : NumberInt(16),
    "Unnamed: 0" : NumberInt(113),
    "codigo_ibge" : NumberInt(3101631),
    "nome" : "Alfredo Vasconcelos",
    "latitude" : -21.1535,
    "longitude" : -43.7718,
    "capital" : NumberInt(0),
    "codigo_uf" : NumberInt(31),
    "siafi_id" : NumberInt(2681),
    "ddd" : NumberInt(32),
    "fuso_horario" : "America/Sao_Paulo"
}
{
    "_id" : ObjectId("673e5ac6909e0611d9239b61"),
    "index" : NumberInt(17),
    "Unnamed: 0" : NumberInt(122),
    "codigo_ibge" : NumberInt(3101706),
    "nome" : "Almenara",
    "latitude" : -16.1785,
    "longitude" : -40.6942,
    "capital" : NumberInt(0),
    "codigo_uf" : NumberInt(31),
    "siafi_id" : NumberInt(4033),
    "ddd" : NumberInt(33),
    "fuso_horario" : "America/Sao_Paulo"
}
{
    "_id" : ObjectId("673e5ac6909e0611d9239b62"),
    "index" : NumberInt(18),
    "Unnamed: 0" : NumberInt(127),
    "codigo_ibge" : NumberInt(3101805),
    "nome" : "Alpercata",
    "latitude" : -18.974,
    "longitude" : -41.97,
    "capital" : NumberInt(0),
    "codigo_uf" : NumberInt(31),
    "siafi_id" : NumberInt(4035),
    "ddd" : NumberInt(33),
    "fuso_horario" : "America/Sao_Paulo"
}
{
    "_id" : ObjectId("673e5ac6909e0611d9239b63"),
    "index" : NumberInt(19),
    "Unnamed: 0" : NumberInt(129),
    "codigo_ibge" : NumberInt(3101904),
    "nome" : "Alpinópolis",
    "latitude" : -20.8631,
    "longitude" : -46.3878,
    "capital" : NumberInt(0),
    "codigo_uf" : NumberInt(31),
    "siafi_id" : NumberInt(4037),
    "ddd" : NumberInt(35),
    "fuso_horario" : "America/Sao_Paulo"
}
{
    "_id" : ObjectId("673e5ac6909e0611d9239b64"),
    "index" : NumberInt(20),
    "Unnamed: 0" : NumberInt(137),
    "codigo_ibge" : NumberInt(3102001),
    "nome" : "Alterosa",
    "latitude" : -21.2488,
    "longitude" : -46.1387,
    "capital" : NumberInt(0),
    "codigo_uf" : NumberInt(31),
    "siafi_id" : NumberInt(4039),
    "ddd" : NumberInt(35),
    "fuso_horario" : "America/Sao_Paulo"
}
{
    "_id" : ObjectId("673e5ac6909e0611d9239b65"),
    "index" : NumberInt(21),
    "Unnamed: 0" : NumberInt(149),
    "codigo_ibge" : NumberInt(3102050),
    "nome" : "Alto Caparaó",
    "latitude" : -20.431,
    "longitude" : -41.8738,
    "capital" : NumberInt(0),
    "codigo_uf" : NumberInt(31),
    "siafi_id" : NumberInt(564),
    "ddd" : NumberInt(32),
    "fuso_horario" : "America/Sao_Paulo"
}
{
    "_id" : ObjectId("673e5ac6909e0611d9239b66"),
    "index" : NumberInt(22),
    "Unnamed: 0" : NumberInt(154),
    "codigo_ibge" : NumberInt(3153509),
    "nome" : "Alto Jequitibá",
    "latitude" : -20.4208,
    "longitude" : -41.967,
    "capital" : NumberInt(0),
    "codigo_uf" : NumberInt(31),
    "siafi_id" : NumberInt(5069),
    "ddd" : NumberInt(33),
    "fuso_horario" : "America/Sao_Paulo"
}
{
    "_id" : ObjectId("673e5ac6909e0611d9239b67"),
    "index" : NumberInt(23),
    "Unnamed: 0" : NumberInt(163),
    "codigo_ibge" : NumberInt(3102100),
    "nome" : "Alto Rio Doce",
    "latitude" : -21.0281,
    "longitude" : -43.4067,
    "capital" : NumberInt(0),
    "codigo_uf" : NumberInt(31),
    "siafi_id" : NumberInt(4041),
    "ddd" : NumberInt(32),
    "fuso_horario" : "America/Sao_Paulo"
}
{
    "_id" : ObjectId("673e5ac6909e0611d9239b68"),
    "index" : NumberInt(24),
    "Unnamed: 0" : NumberInt(171),
    "codigo_ibge" : NumberInt(3102209),
    "nome" : "Alvarenga",
    "latitude" : -19.4174,
    "longitude" : -41.7317,
    "capital" : NumberInt(0),
    "codigo_uf" : NumberInt(31),
    "siafi_id" : NumberInt(4043),
    "ddd" : NumberInt(33),
    "fuso_horario" : "America/Sao_Paulo"
}
{
    "_id" : ObjectId("673e5ac6909e0611d9239b69"),
    "index" : NumberInt(25),
    "Unnamed: 0" : NumberInt(176),
    "codigo_ibge" : NumberInt(3102308),
    "nome" : "Alvinópolis",
    "latitude" : -20.1098,
    "longitude" : -43.0535,
    "capital" : NumberInt(0),
    "codigo_uf" : NumberInt(31),
    "siafi_id" : NumberInt(4045),
    "ddd" : NumberInt(31),
    "fuso_horario" : "America/Sao_Paulo"
}
{
    "_id" : ObjectId("673e5ac6909e0611d9239b6a"),
    "index" : NumberInt(26),
    "Unnamed: 0" : NumberInt(180),
    "codigo_ibge" : NumberInt(3102407),
    "nome" : "Alvorada de Minas",
    "latitude" : -18.7334,
    "longitude" : -43.3638,
    "capital" : NumberInt(0),
    "codigo_uf" : NumberInt(31),
    "siafi_id" : NumberInt(4047),
    "ddd" : NumberInt(31),
    "fuso_horario" : "America/Sao_Paulo"
}
{
    "_id" : ObjectId("673e5ac6909e0611d9239b6b"),
    "index" : NumberInt(27),
    "Unnamed: 0" : NumberInt(208),
    "codigo_ibge" : NumberInt(3102506),
    "nome" : "Amparo do Serra",
    "latitude" : -20.5051,
    "longitude" : -42.8009,
    "capital" : NumberInt(0),
    "codigo_uf" : NumberInt(31),
    "siafi_id" : NumberInt(4049),
    "ddd" : NumberInt(31),
    "fuso_horario" : "America/Sao_Paulo"
}
{
    "_id" : ObjectId("673e5ac6909e0611d9239b6c"),
    "index" : NumberInt(28),
    "Unnamed: 0" : NumberInt(229),
    "codigo_ibge" : NumberInt(3102605),
    "nome" : "Andradas",
    "latitude" : -22.0695,
    "longitude" : -46.5724,
    "capital" : NumberInt(0),
    "codigo_uf" : NumberInt(31),
    "siafi_id" : NumberInt(4051),
    "ddd" : NumberInt(35),
    "fuso_horario" : "America/Sao_Paulo"
}
{
    "_id" : ObjectId("673e5ac6909e0611d9239b6d"),
    "index" : NumberInt(29),
    "Unnamed: 0" : NumberInt(232),
    "codigo_ibge" : NumberInt(3102803),
    "nome" : "Andrelândia",
    "latitude" : -21.7411,
    "longitude" : -44.3117,
    "capital" : NumberInt(0),
    "codigo_uf" : NumberInt(31),
    "siafi_id" : NumberInt(4055),
    "ddd" : NumberInt(35),
    "fuso_horario" : "America/Sao_Paulo"
}
{
    "_id" : ObjectId("673e5ac6909e0611d9239b6e"),
    "index" : NumberInt(30),
    "Unnamed: 0" : NumberInt(234),
    "codigo_ibge" : NumberInt(3102852),
    "nome" : "Angelândia",
    "latitude" : -17.7279,
    "longitude" : -42.2641,
    "capital" : NumberInt(0),
    "codigo_uf" : NumberInt(31),
    "siafi_id" : NumberInt(566),
    "ddd" : NumberInt(33),
    "fuso_horario" : "America/Sao_Paulo"
}
{
    "_id" : ObjectId("673e5ac6909e0611d9239b6f"),
    "index" : NumberInt(31),
    "Unnamed: 0" : NumberInt(260),
    "codigo_ibge" : NumberInt(3102902),
    "nome" : "Antônio Carlos",
    "latitude" : -21.321,
    "longitude" : -43.7451,
    "capital" : NumberInt(0),
    "codigo_uf" : NumberInt(31),
    "siafi_id" : NumberInt(4057),
    "ddd" : NumberInt(32),
    "fuso_horario" : "America/Sao_Paulo"
}
{
    "_id" : ObjectId("673e5ac6909e0611d9239b70"),
    "index" : NumberInt(32),
    "Unnamed: 0" : NumberInt(261),
    "codigo_ibge" : NumberInt(3103009),
    "nome" : "Antônio Dias",
    "latitude" : -19.6491,
    "longitude" : -42.8732,
    "capital" : NumberInt(0),
    "codigo_uf" : NumberInt(31),
    "siafi_id" : NumberInt(4059),
    "ddd" : NumberInt(31),
    "fuso_horario" : "America/Sao_Paulo"
}
{
    "_id" : ObjectId("673e5ac6909e0611d9239b71"),
    "index" : NumberInt(33),
    "Unnamed: 0" : NumberInt(267),
    "codigo_ibge" : NumberInt(3103108),
    "nome" : "Antônio Prado de Minas",
    "latitude" : -21.0192,
    "longitude" : -42.1109,
    "capital" : NumberInt(0),
    "codigo_uf" : NumberInt(31),
    "siafi_id" : NumberInt(4061),
    "ddd" : NumberInt(32),
    "fuso_horario" : "America/Sao_Paulo"
}
{
    "_id" : ObjectId("673e5ac6909e0611d9239b72"),
    "index" : NumberInt(34),
    "Unnamed: 0" : NumberInt(293),
    "codigo_ibge" : NumberInt(3103207),
    "nome" : "Araçaí",
    "latitude" : -19.1955,
    "longitude" : -44.2493,
    "capital" : NumberInt(0),
    "codigo_uf" : NumberInt(31),
    "siafi_id" : NumberInt(4063),
    "ddd" : NumberInt(31),
    "fuso_horario" : "America/Sao_Paulo"
}
{
    "_id" : ObjectId("673e5ac6909e0611d9239b73"),
    "index" : NumberInt(35),
    "Unnamed: 0" : NumberInt(301),
    "codigo_ibge" : NumberInt(3103306),
    "nome" : "Aracitaba",
    "latitude" : -21.3446,
    "longitude" : -43.3736,
    "capital" : NumberInt(0),
    "codigo_uf" : NumberInt(31),
    "siafi_id" : NumberInt(4065),
    "ddd" : NumberInt(32),
    "fuso_horario" : "America/Sao_Paulo"
}
{
    "_id" : ObjectId("673e5ac6909e0611d9239b74"),
    "index" : NumberInt(36),
    "Unnamed: 0" : NumberInt(307),
    "codigo_ibge" : NumberInt(3103405),
    "nome" : "Araçuaí",
    "latitude" : -16.8523,
    "longitude" : -42.0637,
    "capital" : NumberInt(0),
    "codigo_uf" : NumberInt(31),
    "siafi_id" : NumberInt(4067),
    "ddd" : NumberInt(33),
    "fuso_horario" : "America/Sao_Paulo"
}
{
    "_id" : ObjectId("673e5ac6909e0611d9239b75"),
    "index" : NumberInt(37),
    "Unnamed: 0" : NumberInt(319),
    "codigo_ibge" : NumberInt(3103504),
    "nome" : "Araguari",
    "latitude" : -18.6456,
    "longitude" : -48.1934,
    "capital" : NumberInt(0),
    "codigo_uf" : NumberInt(31),
    "siafi_id" : NumberInt(4069),
    "ddd" : NumberInt(34),
    "fuso_horario" : "America/Sao_Paulo"
}
{
    "_id" : ObjectId("673e5ac6909e0611d9239b76"),
    "index" : NumberInt(38),
    "Unnamed: 0" : NumberInt(328),
    "codigo_ibge" : NumberInt(3103603),
    "nome" : "Arantina",
    "latitude" : -21.9102,
    "longitude" : -44.2555,
    "capital" : NumberInt(0),
    "codigo_uf" : NumberInt(31),
    "siafi_id" : NumberInt(4071),
    "ddd" : NumberInt(32),
    "fuso_horario" : "America/Sao_Paulo"
}
{
    "_id" : ObjectId("673e5ac6909e0611d9239b77"),
    "index" : NumberInt(39),
    "Unnamed: 0" : NumberInt(332),
    "codigo_ibge" : NumberInt(3103702),
    "nome" : "Araponga",
    "latitude" : -20.6686,
    "longitude" : -42.5178,
    "capital" : NumberInt(0),
    "codigo_uf" : NumberInt(31),
    "siafi_id" : NumberInt(4073),
    "ddd" : NumberInt(31),
    "fuso_horario" : "America/Sao_Paulo"
}
{
    "_id" : ObjectId("673e5ac6909e0611d9239b78"),
    "index" : NumberInt(40),
    "Unnamed: 0" : NumberInt(334),
    "codigo_ibge" : NumberInt(3103751),
    "nome" : "Araporã",
    "latitude" : -18.4357,
    "longitude" : -49.1847,
    "capital" : NumberInt(0),
    "codigo_uf" : NumberInt(31),
    "siafi_id" : NumberInt(2903),
    "ddd" : NumberInt(34),
    "fuso_horario" : "America/Sao_Paulo"
}
{
    "_id" : ObjectId("673e5ac6909e0611d9239b79"),
    "index" : NumberInt(41),
    "Unnamed: 0" : NumberInt(337),
    "codigo_ibge" : NumberInt(3103801),
    "nome" : "Arapuá",
    "latitude" : -19.0268,
    "longitude" : -46.1484,
    "capital" : NumberInt(0),
    "codigo_uf" : NumberInt(31),
    "siafi_id" : NumberInt(4075),
    "ddd" : NumberInt(34),
    "fuso_horario" : "America/Sao_Paulo"
}
{
    "_id" : ObjectId("673e5ac6909e0611d9239b7a"),
    "index" : NumberInt(42),
    "Unnamed: 0" : NumberInt(358),
    "codigo_ibge" : NumberInt(3103900),
    "nome" : "Araújos",
    "latitude" : -19.9405,
    "longitude" : -45.1671,
    "capital" : NumberInt(0),
    "codigo_uf" : NumberInt(31),
    "siafi_id" : NumberInt(4077),
    "ddd" : NumberInt(37),
    "fuso_horario" : "America/Sao_Paulo"
}
{
    "_id" : ObjectId("673e5ac6909e0611d9239b7b"),
    "index" : NumberInt(43),
    "Unnamed: 0" : NumberInt(359),
    "codigo_ibge" : NumberInt(3104007),
    "nome" : "Araxá",
    "latitude" : -19.5902,
    "longitude" : -46.9438,
    "capital" : NumberInt(0),
    "codigo_uf" : NumberInt(31),
    "siafi_id" : NumberInt(4079),
    "ddd" : NumberInt(34),
    "fuso_horario" : "America/Sao_Paulo"
}
{
    "_id" : ObjectId("673e5ac6909e0611d9239b7c"),
    "index" : NumberInt(44),
    "Unnamed: 0" : NumberInt(360),
    "codigo_ibge" : NumberInt(3104106),
    "nome" : "Arceburgo",
    "latitude" : -21.359,
    "longitude" : -46.9401,
    "capital" : NumberInt(0),
    "codigo_uf" : NumberInt(31),
    "siafi_id" : NumberInt(4081),
    "ddd" : NumberInt(35),
    "fuso_horario" : "America/Sao_Paulo"
}
{
    "_id" : ObjectId("673e5ac6909e0611d9239b7d"),
    "index" : NumberInt(45),
    "Unnamed: 0" : NumberInt(362),
    "codigo_ibge" : NumberInt(3104205),
    "nome" : "Arcos",
    "latitude" : -20.2863,
    "longitude" : -45.5373,
    "capital" : NumberInt(0),
    "codigo_uf" : NumberInt(31),
    "siafi_id" : NumberInt(4083),
    "ddd" : NumberInt(37),
    "fuso_horario" : "America/Sao_Paulo"
}
{
    "_id" : ObjectId("673e5ac6909e0611d9239b7e"),
    "index" : NumberInt(46),
    "Unnamed: 0" : NumberInt(364),
    "codigo_ibge" : NumberInt(3104304),
    "nome" : "Areado",
    "latitude" : -21.3572,
    "longitude" : -46.1421,
    "capital" : NumberInt(0),
    "codigo_uf" : NumberInt(31),
    "siafi_id" : NumberInt(4085),
    "ddd" : NumberInt(35),
    "fuso_horario" : "America/Sao_Paulo"
}
{
    "_id" : ObjectId("673e5ac6909e0611d9239b7f"),
    "index" : NumberInt(47),
    "Unnamed: 0" : NumberInt(377),
    "codigo_ibge" : NumberInt(3104403),
    "nome" : "Argirita",
    "latitude" : -21.6083,
    "longitude" : -42.8292,
    "capital" : NumberInt(0),
    "codigo_uf" : NumberInt(31),
    "siafi_id" : NumberInt(4087),
    "ddd" : NumberInt(32),
    "fuso_horario" : "America/Sao_Paulo"
}
{
    "_id" : ObjectId("673e5ac6909e0611d9239b80"),
    "index" : NumberInt(48),
    "Unnamed: 0" : NumberInt(378),
    "codigo_ibge" : NumberInt(3104452),
    "nome" : "Aricanduva",
    "latitude" : -17.8666,
    "longitude" : -42.5533,
    "capital" : NumberInt(0),
    "codigo_uf" : NumberInt(31),
    "siafi_id" : NumberInt(568),
    "ddd" : NumberInt(33),
    "fuso_horario" : "America/Sao_Paulo"
}
{
    "_id" : ObjectId("673e5ac6909e0611d9239b81"),
    "index" : NumberInt(49),
    "Unnamed: 0" : NumberInt(379),
    "codigo_ibge" : NumberInt(3104502),
    "nome" : "Arinos",
    "latitude" : -15.9187,
    "longitude" : -46.1043,
    "capital" : NumberInt(0),
    "codigo_uf" : NumberInt(31),
    "siafi_id" : NumberInt(4089),
    "ddd" : NumberInt(38),
    "fuso_horario" : "America/Sao_Paulo"
}
{
    "_id" : ObjectId("673e5ac6909e0611d9239b82"),
    "index" : NumberInt(50),
    "Unnamed: 0" : NumberInt(414),
    "codigo_ibge" : NumberInt(3104601),
    "nome" : "Astolfo Dutra",
    "latitude" : -21.3184,
    "longitude" : -42.8572,
    "capital" : NumberInt(0),
    "codigo_uf" : NumberInt(31),
    "siafi_id" : NumberInt(4091),
    "ddd" : NumberInt(32),
    "fuso_horario" : "America/Sao_Paulo"
}
{
    "_id" : ObjectId("673e5ac6909e0611d9239b83"),
    "index" : NumberInt(51),
    "Unnamed: 0" : NumberInt(420),
    "codigo_ibge" : NumberInt(3104700),
    "nome" : "Ataléia",
    "latitude" : -18.0438,
    "longitude" : -41.1149,
    "capital" : NumberInt(0),
    "codigo_uf" : NumberInt(31),
    "siafi_id" : NumberInt(4093),
    "ddd" : NumberInt(33),
    "fuso_horario" : "America/Sao_Paulo"
}
{
    "_id" : ObjectId("673e5ac6909e0611d9239b84"),
    "index" : NumberInt(52),
    "Unnamed: 0" : NumberInt(425),
    "codigo_ibge" : NumberInt(3104809),
    "nome" : "Augusto de Lima",
    "latitude" : -18.0997,
    "longitude" : -44.2655,
    "capital" : NumberInt(0),
    "codigo_uf" : NumberInt(31),
    "siafi_id" : NumberInt(4095),
    "ddd" : NumberInt(38),
    "fuso_horario" : "America/Sao_Paulo"
}
{
    "_id" : ObjectId("673e5ac6909e0611d9239b85"),
    "index" : NumberInt(53),
    "Unnamed: 0" : NumberInt(451),
    "codigo_ibge" : NumberInt(3104908),
    "nome" : "Baependi",
    "latitude" : -21.957,
    "longitude" : -44.8874,
    "capital" : NumberInt(0),
    "codigo_uf" : NumberInt(31),
    "siafi_id" : NumberInt(4097),
    "ddd" : NumberInt(35),
    "fuso_horario" : "America/Sao_Paulo"
}
{
    "_id" : ObjectId("673e5ac6909e0611d9239b86"),
    "index" : NumberInt(54),
    "Unnamed: 0" : NumberInt(463),
    "codigo_ibge" : NumberInt(3105004),
    "nome" : "Baldim",
    "latitude" : -19.2832,
    "longitude" : -43.9613,
    "capital" : NumberInt(0),
    "codigo_uf" : NumberInt(31),
    "siafi_id" : NumberInt(4099),
    "ddd" : NumberInt(31),
    "fuso_horario" : "America/Sao_Paulo"
}
{
    "_id" : ObjectId("673e5ac6909e0611d9239b87"),
    "index" : NumberInt(55),
    "Unnamed: 0" : NumberInt(475),
    "codigo_ibge" : NumberInt(3105103),
    "nome" : "Bambuí",
    "latitude" : -20.0166,
    "longitude" : -45.9754,
    "capital" : NumberInt(0),
    "codigo_uf" : NumberInt(31),
    "siafi_id" : NumberInt(4101),
    "ddd" : NumberInt(37),
    "fuso_horario" : "America/Sao_Paulo"
}
{
    "_id" : ObjectId("673e5ac6909e0611d9239b88"),
    "index" : NumberInt(56),
    "Unnamed: 0" : NumberInt(479),
    "codigo_ibge" : NumberInt(3105202),
    "nome" : "Bandeira",
    "latitude" : -15.8783,
    "longitude" : -40.5622,
    "capital" : NumberInt(0),
    "codigo_uf" : NumberInt(31),
    "siafi_id" : NumberInt(4103),
    "ddd" : NumberInt(33),
    "fuso_horario" : "America/Sao_Paulo"
}
{
    "_id" : ObjectId("673e5ac6909e0611d9239b89"),
    "index" : NumberInt(57),
    "Unnamed: 0" : NumberInt(480),
    "codigo_ibge" : NumberInt(3105301),
    "nome" : "Bandeira do Sul",
    "latitude" : -21.7308,
    "longitude" : -46.3833,
    "capital" : NumberInt(0),
    "codigo_uf" : NumberInt(31),
    "siafi_id" : NumberInt(4105),
    "ddd" : NumberInt(35),
    "fuso_horario" : "America/Sao_Paulo"
}
{
    "_id" : ObjectId("673e5ac6909e0611d9239b8a"),
    "index" : NumberInt(58),
    "Unnamed: 0" : NumberInt(489),
    "codigo_ibge" : NumberInt(3105400),
    "nome" : "Barão de Cocais",
    "latitude" : -19.9389,
    "longitude" : -43.4755,
    "capital" : NumberInt(0),
    "codigo_uf" : NumberInt(31),
    "siafi_id" : NumberInt(4107),
    "ddd" : NumberInt(31),
    "fuso_horario" : "America/Sao_Paulo"
}
{
    "_id" : ObjectId("673e5ac6909e0611d9239b8b"),
    "index" : NumberInt(59),
    "Unnamed: 0" : NumberInt(493),
    "codigo_ibge" : NumberInt(3105509),
    "nome" : "Barão de Monte Alto",
    "latitude" : -21.2444,
    "longitude" : -42.2372,
    "capital" : NumberInt(0),
    "codigo_uf" : NumberInt(31),
    "siafi_id" : NumberInt(4109),
    "ddd" : NumberInt(32),
    "fuso_horario" : "America/Sao_Paulo"
}
{
    "_id" : ObjectId("673e5ac6909e0611d9239b8c"),
    "index" : NumberInt(60),
    "Unnamed: 0" : NumberInt(497),
    "codigo_ibge" : NumberInt(3105608),
    "nome" : "Barbacena",
    "latitude" : -21.2214,
    "longitude" : -43.7703,
    "capital" : NumberInt(0),
    "codigo_uf" : NumberInt(31),
    "siafi_id" : NumberInt(4111),
    "ddd" : NumberInt(32),
    "fuso_horario" : "America/Sao_Paulo"
}
{
    "_id" : ObjectId("673e5ac6909e0611d9239b8d"),
    "index" : NumberInt(61),
    "Unnamed: 0" : NumberInt(534),
    "codigo_ibge" : NumberInt(3105707),
    "nome" : "Barra Longa",
    "latitude" : -20.2869,
    "longitude" : -43.0402,
    "capital" : NumberInt(0),
    "codigo_uf" : NumberInt(31),
    "siafi_id" : NumberInt(4113),
    "ddd" : NumberInt(31),
    "fuso_horario" : "America/Sao_Paulo"
}
{
    "_id" : ObjectId("673e5ac6909e0611d9239b8e"),
    "index" : NumberInt(62),
    "Unnamed: 0" : NumberInt(557),
    "codigo_ibge" : NumberInt(3105905),
    "nome" : "Barroso",
    "latitude" : -21.1907,
    "longitude" : -43.972,
    "capital" : NumberInt(0),
    "codigo_uf" : NumberInt(31),
    "siafi_id" : NumberInt(4117),
    "ddd" : NumberInt(32),
    "fuso_horario" : "America/Sao_Paulo"
}
{
    "_id" : ObjectId("673e5ac6909e0611d9239b8f"),
    "index" : NumberInt(63),
    "Unnamed: 0" : NumberInt(574),
    "codigo_ibge" : NumberInt(3106002),
    "nome" : "Bela Vista de Minas",
    "latitude" : -19.8302,
    "longitude" : -43.0922,
    "capital" : NumberInt(0),
    "codigo_uf" : NumberInt(31),
    "siafi_id" : NumberInt(4119),
    "ddd" : NumberInt(31),
    "fuso_horario" : "America/Sao_Paulo"
}
{
    "_id" : ObjectId("673e5ac6909e0611d9239b90"),
    "index" : NumberInt(64),
    "Unnamed: 0" : NumberInt(588),
    "codigo_ibge" : NumberInt(3106101),
    "nome" : "Belmiro Braga",
    "latitude" : -21.944,
    "longitude" : -43.4084,
    "capital" : NumberInt(0),
    "codigo_uf" : NumberInt(31),
    "siafi_id" : NumberInt(4121),
    "ddd" : NumberInt(32),
    "fuso_horario" : "America/Sao_Paulo"
}
{
    "_id" : ObjectId("673e5ac6909e0611d9239b91"),
    "index" : NumberInt(65),
    "Unnamed: 0" : NumberInt(592),
    "codigo_ibge" : NumberInt(3106200),
    "nome" : "Belo Horizonte",
    "latitude" : -19.9102,
    "longitude" : -43.9266,
    "capital" : NumberInt(1),
    "codigo_uf" : NumberInt(31),
    "siafi_id" : NumberInt(4123),
    "ddd" : NumberInt(31),
    "fuso_horario" : "America/Sao_Paulo"
}
{
    "_id" : ObjectId("673e5ac6909e0611d9239b92"),
    "index" : NumberInt(66),
    "Unnamed: 0" : NumberInt(595),
    "codigo_ibge" : NumberInt(3106309),
    "nome" : "Belo Oriente",
    "latitude" : -19.2199,
    "longitude" : -42.4828,
    "capital" : NumberInt(0),
    "codigo_uf" : NumberInt(31),
    "siafi_id" : NumberInt(4125),
    "ddd" : NumberInt(31),
    "fuso_horario" : "America/Sao_Paulo"
}
{
    "_id" : ObjectId("673e5ac6909e0611d9239b93"),
    "index" : NumberInt(67),
    "Unnamed: 0" : NumberInt(596),
    "codigo_ibge" : NumberInt(3106408),
    "nome" : "Belo Vale",
    "latitude" : -20.4077,
    "longitude" : -44.0275,
    "capital" : NumberInt(0),
    "codigo_uf" : NumberInt(31),
    "siafi_id" : NumberInt(4127),
    "ddd" : NumberInt(31),
    "fuso_horario" : "America/Sao_Paulo"
}
{
    "_id" : ObjectId("673e5ac6909e0611d9239b94"),
    "index" : NumberInt(68),
    "Unnamed: 0" : NumberInt(608),
    "codigo_ibge" : NumberInt(3106507),
    "nome" : "Berilo",
    "latitude" : -16.9567,
    "longitude" : -42.4606,
    "capital" : NumberInt(0),
    "codigo_uf" : NumberInt(31),
    "siafi_id" : NumberInt(4129),
    "ddd" : NumberInt(33),
    "fuso_horario" : "America/Sao_Paulo"
}
{
    "_id" : ObjectId("673e5ac6909e0611d9239b95"),
    "index" : NumberInt(69),
    "Unnamed: 0" : NumberInt(609),
    "codigo_ibge" : NumberInt(3106655),
    "nome" : "Berizal",
    "latitude" : -15.61,
    "longitude" : -41.7432,
    "capital" : NumberInt(0),
    "codigo_uf" : NumberInt(31),
    "siafi_id" : NumberInt(570),
    "ddd" : NumberInt(38),
    "fuso_horario" : "America/Sao_Paulo"
}
{
    "_id" : ObjectId("673e5ac6909e0611d9239b96"),
    "index" : NumberInt(70),
    "Unnamed: 0" : NumberInt(616),
    "codigo_ibge" : NumberInt(3106606),
    "nome" : "Bertópolis",
    "latitude" : -17.059,
    "longitude" : -40.58,
    "capital" : NumberInt(0),
    "codigo_uf" : NumberInt(31),
    "siafi_id" : NumberInt(4131),
    "ddd" : NumberInt(33),
    "fuso_horario" : "America/Sao_Paulo"
}
{
    "_id" : ObjectId("673e5ac6909e0611d9239b97"),
    "index" : NumberInt(71),
    "Unnamed: 0" : NumberInt(620),
    "codigo_ibge" : NumberInt(3106705),
    "nome" : "Betim",
    "latitude" : -19.9668,
    "longitude" : -44.2008,
    "capital" : NumberInt(0),
    "codigo_uf" : NumberInt(31),
    "siafi_id" : NumberInt(4133),
    "ddd" : NumberInt(31),
    "fuso_horario" : "America/Sao_Paulo"
}
{
    "_id" : ObjectId("673e5ac6909e0611d9239b98"),
    "index" : NumberInt(72),
    "Unnamed: 0" : NumberInt(622),
    "codigo_ibge" : NumberInt(3106804),
    "nome" : "Bias Fortes",
    "latitude" : -21.602,
    "longitude" : -43.7574,
    "capital" : NumberInt(0),
    "codigo_uf" : NumberInt(31),
    "siafi_id" : NumberInt(4135),
    "ddd" : NumberInt(32),
    "fuso_horario" : "America/Sao_Paulo"
}
{
    "_id" : ObjectId("673e5ac6909e0611d9239b99"),
    "index" : NumberInt(73),
    "Unnamed: 0" : NumberInt(623),
    "codigo_ibge" : NumberInt(3106903),
    "nome" : "Bicas",
    "latitude" : -21.7232,
    "longitude" : -43.056,
    "capital" : NumberInt(0),
    "codigo_uf" : NumberInt(31),
    "siafi_id" : NumberInt(4137),
    "ddd" : NumberInt(32),
    "fuso_horario" : "America/Sao_Paulo"
}
{
    "_id" : ObjectId("673e5ac6909e0611d9239b9a"),
    "index" : NumberInt(74),
    "Unnamed: 0" : NumberInt(626),
    "codigo_ibge" : NumberInt(3107000),
    "nome" : "Biquinhas",
    "latitude" : -18.7754,
    "longitude" : -45.4974,
    "capital" : NumberInt(0),
    "codigo_uf" : NumberInt(31),
    "siafi_id" : NumberInt(4139),
    "ddd" : NumberInt(37),
    "fuso_horario" : "America/Sao_Paulo"
}
{
    "_id" : ObjectId("673e5ac6909e0611d9239b9b"),
    "index" : NumberInt(75),
    "Unnamed: 0" : NumberInt(633),
    "codigo_ibge" : NumberInt(3107109),
    "nome" : "Boa Esperança",
    "latitude" : -21.0927,
    "longitude" : -45.5612,
    "capital" : NumberInt(0),
    "codigo_uf" : NumberInt(31),
    "siafi_id" : NumberInt(4141),
    "ddd" : NumberInt(35),
    "fuso_horario" : "America/Sao_Paulo"
}
{
    "_id" : ObjectId("673e5ac6909e0611d9239b9c"),
    "index" : NumberInt(76),
    "Unnamed: 0" : NumberInt(657),
    "codigo_ibge" : NumberInt(3107208),
    "nome" : "Bocaina de Minas",
    "latitude" : -22.1697,
    "longitude" : -44.3972,
    "capital" : NumberInt(0),
    "codigo_uf" : NumberInt(31),
    "siafi_id" : NumberInt(4143),
    "ddd" : NumberInt(32),
    "fuso_horario" : "America/Sao_Paulo"
}
{
    "_id" : ObjectId("673e5ac6909e0611d9239b9d"),
    "index" : NumberInt(77),
    "Unnamed: 0" : NumberInt(659),
    "codigo_ibge" : NumberInt(3107307),
    "nome" : "Bocaiúva",
    "latitude" : -17.1135,
    "longitude" : -43.8104,
    "capital" : NumberInt(0),
    "codigo_uf" : NumberInt(31),
    "siafi_id" : NumberInt(4145),
    "ddd" : NumberInt(38),
    "fuso_horario" : "America/Sao_Paulo"
}
{
    "_id" : ObjectId("673e5ac6909e0611d9239b9e"),
    "index" : NumberInt(78),
    "Unnamed: 0" : NumberInt(667),
    "codigo_ibge" : NumberInt(3107406),
    "nome" : "Bom Despacho",
    "latitude" : -19.7386,
    "longitude" : -45.2622,
    "capital" : NumberInt(0),
    "codigo_uf" : NumberInt(31),
    "siafi_id" : NumberInt(4147),
    "ddd" : NumberInt(37),
    "fuso_horario" : "America/Sao_Paulo"
}
{
    "_id" : ObjectId("673e5ac6909e0611d9239b9f"),
    "index" : NumberInt(79),
    "Unnamed: 0" : NumberInt(673),
    "codigo_ibge" : NumberInt(3107505),
    "nome" : "Bom Jardim de Minas",
    "latitude" : -21.9479,
    "longitude" : -44.1885,
    "capital" : NumberInt(0),
    "codigo_uf" : NumberInt(31),
    "siafi_id" : NumberInt(4149),
    "ddd" : NumberInt(32),
    "fuso_horario" : "America/Sao_Paulo"
}
{
    "_id" : ObjectId("673e5ac6909e0611d9239ba0"),
    "index" : NumberInt(80),
    "Unnamed: 0" : NumberInt(680),
    "codigo_ibge" : NumberInt(3107604),
    "nome" : "Bom Jesus da Penha",
    "latitude" : -21.0148,
    "longitude" : -46.5174,
    "capital" : NumberInt(0),
    "codigo_uf" : NumberInt(31),
    "siafi_id" : NumberInt(4151),
    "ddd" : NumberInt(35),
    "fuso_horario" : "America/Sao_Paulo"
}
{
    "_id" : ObjectId("673e5ac6909e0611d9239ba1"),
    "index" : NumberInt(81),
    "Unnamed: 0" : NumberInt(684),
    "codigo_ibge" : NumberInt(3107703),
    "nome" : "Bom Jesus do Amparo",
    "latitude" : -19.7054,
    "longitude" : -43.4782,
    "capital" : NumberInt(0),
    "codigo_uf" : NumberInt(31),
    "siafi_id" : NumberInt(4153),
    "ddd" : NumberInt(31),
    "fuso_horario" : "America/Sao_Paulo"
}
{
    "_id" : ObjectId("673e5ac6909e0611d9239ba2"),
    "index" : NumberInt(82),
    "Unnamed: 0" : NumberInt(686),
    "codigo_ibge" : NumberInt(3107802),
    "nome" : "Bom Jesus do Galho",
    "latitude" : -19.836,
    "longitude" : -42.3165,
    "capital" : NumberInt(0),
    "codigo_uf" : NumberInt(31),
    "siafi_id" : NumberInt(4155),
    "ddd" : NumberInt(33),
    "fuso_horario" : "America/Sao_Paulo"
}
{
    "_id" : ObjectId("673e5ac6909e0611d9239ba3"),
    "index" : NumberInt(83),
    "Unnamed: 0" : NumberInt(698),
    "codigo_ibge" : NumberInt(3107901),
    "nome" : "Bom Repouso",
    "latitude" : -22.4675,
    "longitude" : -46.144,
    "capital" : NumberInt(0),
    "codigo_uf" : NumberInt(31),
    "siafi_id" : NumberInt(4157),
    "ddd" : NumberInt(35),
    "fuso_horario" : "America/Sao_Paulo"
}
{
    "_id" : ObjectId("673e5ac6909e0611d9239ba4"),
    "index" : NumberInt(84),
    "Unnamed: 0" : NumberInt(701),
    "codigo_ibge" : NumberInt(3108008),
    "nome" : "Bom Sucesso",
    "latitude" : -21.0329,
    "longitude" : -44.7537,
    "capital" : NumberInt(0),
    "codigo_uf" : NumberInt(31),
    "siafi_id" : NumberInt(4159),
    "ddd" : NumberInt(35),
    "fuso_horario" : "America/Sao_Paulo"
}
{
    "_id" : ObjectId("673e5ac6909e0611d9239ba5"),
    "index" : NumberInt(85),
    "Unnamed: 0" : NumberInt(708),
    "codigo_ibge" : NumberInt(3108107),
    "nome" : "Bonfim",
    "latitude" : -20.3302,
    "longitude" : -44.2366,
    "capital" : NumberInt(0),
    "codigo_uf" : NumberInt(31),
    "siafi_id" : NumberInt(4161),
    "ddd" : NumberInt(31),
    "fuso_horario" : "America/Sao_Paulo"
}
{
    "_id" : ObjectId("673e5ac6909e0611d9239ba6"),
    "index" : NumberInt(86),
    "Unnamed: 0" : NumberInt(711),
    "codigo_ibge" : NumberInt(3108206),
    "nome" : "Bonfinópolis de Minas",
    "latitude" : -16.568,
    "longitude" : -45.9839,
    "capital" : NumberInt(0),
    "codigo_uf" : NumberInt(31),
    "siafi_id" : NumberInt(4163),
    "ddd" : NumberInt(38),
    "fuso_horario" : "America/Sao_Paulo"
}
{
    "_id" : ObjectId("673e5ac6909e0611d9239ba7"),
    "index" : NumberInt(87),
    "Unnamed: 0" : NumberInt(717),
    "codigo_ibge" : NumberInt(3108255),
    "nome" : "Bonito de Minas",
    "latitude" : -15.3231,
    "longitude" : -44.7543,
    "capital" : NumberInt(0),
    "codigo_uf" : NumberInt(31),
    "siafi_id" : NumberInt(572),
    "ddd" : NumberInt(38),
    "fuso_horario" : "America/Sao_Paulo"
}
{
    "_id" : ObjectId("673e5ac6909e0611d9239ba8"),
    "index" : NumberInt(88),
    "Unnamed: 0" : NumberInt(730),
    "codigo_ibge" : NumberInt(3108305),
    "nome" : "Borda da Mata",
    "latitude" : -22.2707,
    "longitude" : -46.1653,
    "capital" : NumberInt(0),
    "codigo_uf" : NumberInt(31),
    "siafi_id" : NumberInt(4165),
    "ddd" : NumberInt(35),
    "fuso_horario" : "America/Sao_Paulo"
}
{
    "_id" : ObjectId("673e5ac6909e0611d9239ba9"),
    "index" : NumberInt(89),
    "Unnamed: 0" : NumberInt(734),
    "codigo_ibge" : NumberInt(3108404),
    "nome" : "Botelhos",
    "latitude" : -21.6412,
    "longitude" : -46.391,
    "capital" : NumberInt(0),
    "codigo_uf" : NumberInt(31),
    "siafi_id" : NumberInt(4167),
    "ddd" : NumberInt(35),
    "fuso_horario" : "America/Sao_Paulo"
}
{
    "_id" : ObjectId("673e5ac6909e0611d9239baa"),
    "index" : NumberInt(90),
    "Unnamed: 0" : NumberInt(736),
    "codigo_ibge" : NumberInt(3108503),
    "nome" : "Botumirim",
    "latitude" : -16.8657,
    "longitude" : -43.0086,
    "capital" : NumberInt(0),
    "codigo_uf" : NumberInt(31),
    "siafi_id" : NumberInt(4169),
    "ddd" : NumberInt(38),
    "fuso_horario" : "America/Sao_Paulo"
}
{
    "_id" : ObjectId("673e5ac6909e0611d9239bab"),
    "index" : NumberInt(91),
    "Unnamed: 0" : NumberInt(747),
    "codigo_ibge" : NumberInt(3108701),
    "nome" : "Brás Pires",
    "latitude" : -20.8419,
    "longitude" : -43.2406,
    "capital" : NumberInt(0),
    "codigo_uf" : NumberInt(31),
    "siafi_id" : NumberInt(4173),
    "ddd" : NumberInt(32),
    "fuso_horario" : "America/Sao_Paulo"
}
{
    "_id" : ObjectId("673e5ac6909e0611d9239bac"),
    "index" : NumberInt(92),
    "Unnamed: 0" : NumberInt(750),
    "codigo_ibge" : NumberInt(3108552),
    "nome" : "Brasilândia de Minas",
    "latitude" : -16.9999,
    "longitude" : -46.0081,
    "capital" : NumberInt(0),
    "codigo_uf" : NumberInt(31),
    "siafi_id" : NumberInt(574),
    "ddd" : NumberInt(38),
    "fuso_horario" : "America/Sao_Paulo"
}
{
    "_id" : ObjectId("673e5ac6909e0611d9239bad"),
    "index" : NumberInt(93),
    "Unnamed: 0" : NumberInt(756),
    "codigo_ibge" : NumberInt(3108602),
    "nome" : "Brasília de Minas",
    "latitude" : -16.2104,
    "longitude" : -44.4299,
    "capital" : NumberInt(0),
    "codigo_uf" : NumberInt(31),
    "siafi_id" : NumberInt(4171),
    "ddd" : NumberInt(38),
    "fuso_horario" : "America/Sao_Paulo"
}
{
    "_id" : ObjectId("673e5ac6909e0611d9239bae"),
    "index" : NumberInt(94),
    "Unnamed: 0" : NumberInt(759),
    "codigo_ibge" : NumberInt(3108800),
    "nome" : "Braúnas",
    "latitude" : -19.0562,
    "longitude" : -42.7099,
    "capital" : NumberInt(0),
    "codigo_uf" : NumberInt(31),
    "siafi_id" : NumberInt(4175),
    "ddd" : NumberInt(35),
    "fuso_horario" : "America/Sao_Paulo"
}
{
    "_id" : ObjectId("673e5ac6909e0611d9239baf"),
    "index" : NumberInt(95),
    "Unnamed: 0" : NumberInt(761),
    "codigo_ibge" : NumberInt(3108909),
    "nome" : "Brazópolis",
    "latitude" : -22.4743,
    "longitude" : -45.6166,
    "capital" : NumberInt(0),
    "codigo_uf" : NumberInt(31),
    "siafi_id" : NumberInt(4177),
    "ddd" : NumberInt(33),
    "fuso_horario" : "America/Sao_Paulo"
}
{
    "_id" : ObjectId("673e5ac6909e0611d9239bb0"),
    "index" : NumberInt(96),
    "Unnamed: 0" : NumberInt(786),
    "codigo_ibge" : NumberInt(3109006),
    "nome" : "Brumadinho",
    "latitude" : -20.151,
    "longitude" : -44.2007,
    "capital" : NumberInt(0),
    "codigo_uf" : NumberInt(31),
    "siafi_id" : NumberInt(4179),
    "ddd" : NumberInt(31),
    "fuso_horario" : "America/Sao_Paulo"
}
{
    "_id" : ObjectId("673e5ac6909e0611d9239bb1"),
    "index" : NumberInt(97),
    "Unnamed: 0" : NumberInt(790),
    "codigo_ibge" : NumberInt(3109105),
    "nome" : "Bueno Brandão",
    "latitude" : -22.4383,
    "longitude" : -46.3491,
    "capital" : NumberInt(0),
    "codigo_uf" : NumberInt(31),
    "siafi_id" : NumberInt(4181),
    "ddd" : NumberInt(35),
    "fuso_horario" : "America/Sao_Paulo"
}
{
    "_id" : ObjectId("673e5ac6909e0611d9239bb2"),
    "index" : NumberInt(98),
    "Unnamed: 0" : NumberInt(791),
    "codigo_ibge" : NumberInt(3109204),
    "nome" : "Buenópolis",
    "latitude" : -17.8744,
    "longitude" : -44.1775,
    "capital" : NumberInt(0),
    "codigo_uf" : NumberInt(31),
    "siafi_id" : NumberInt(4183),
    "ddd" : NumberInt(38),
    "fuso_horario" : "America/Sao_Paulo"
}
{
    "_id" : ObjectId("673e5ac6909e0611d9239bb3"),
    "index" : NumberInt(99),
    "Unnamed: 0" : NumberInt(794),
    "codigo_ibge" : NumberInt(3109253),
    "nome" : "Bugre",
    "latitude" : -19.4231,
    "longitude" : -42.2552,
    "capital" : NumberInt(0),
    "codigo_uf" : NumberInt(31),
    "siafi_id" : NumberInt(576),
    "ddd" : NumberInt(33),
    "fuso_horario" : "America/Sao_Paulo"
}
{
    "_id" : ObjectId("673e5ac6909e0611d9239bb4"),
    "index" : NumberInt(100),
    "Unnamed: 0" : NumberInt(812),
    "codigo_ibge" : NumberInt(3109303),
    "nome" : "Buritis",
    "latitude" : -15.6218,
    "longitude" : -46.4221,
    "capital" : NumberInt(0),
    "codigo_uf" : NumberInt(31),
    "siafi_id" : NumberInt(4185),
    "ddd" : NumberInt(38),
    "fuso_horario" : "America/Sao_Paulo"
}
{
    "_id" : ObjectId("673e5ac6909e0611d9239bb5"),
    "index" : NumberInt(101),
    "Unnamed: 0" : NumberInt(814),
    "codigo_ibge" : NumberInt(3109402),
    "nome" : "Buritizeiro",
    "latitude" : -17.3656,
    "longitude" : -44.9606,
    "capital" : NumberInt(0),
    "codigo_uf" : NumberInt(31),
    "siafi_id" : NumberInt(4187),
    "ddd" : NumberInt(38),
    "fuso_horario" : "America/Sao_Paulo"
}
{
    "_id" : ObjectId("673e5ac6909e0611d9239bb6"),
    "index" : NumberInt(102),
    "Unnamed: 0" : NumberInt(822),
    "codigo_ibge" : NumberInt(3109451),
    "nome" : "Cabeceira Grande",
    "latitude" : -16.0335,
    "longitude" : -47.0862,
    "capital" : NumberInt(0),
    "codigo_uf" : NumberInt(31),
    "siafi_id" : NumberInt(578),
    "ddd" : NumberInt(38),
    "fuso_horario" : "America/Sao_Paulo"
}
{
    "_id" : ObjectId("673e5ac6909e0611d9239bb7"),
    "index" : NumberInt(103),
    "Unnamed: 0" : NumberInt(829),
    "codigo_ibge" : NumberInt(3109501),
    "nome" : "Cabo Verde",
    "latitude" : -21.4699,
    "longitude" : -46.3919,
    "capital" : NumberInt(0),
    "codigo_uf" : NumberInt(31),
    "siafi_id" : NumberInt(4189),
    "ddd" : NumberInt(35),
    "fuso_horario" : "America/Sao_Paulo"
}
{
    "_id" : ObjectId("673e5ac6909e0611d9239bb8"),
    "index" : NumberInt(104),
    "Unnamed: 0" : NumberInt(841),
    "codigo_ibge" : NumberInt(3109600),
    "nome" : "Cachoeira da Prata",
    "latitude" : -19.521,
    "longitude" : -44.4544,
    "capital" : NumberInt(0),
    "codigo_uf" : NumberInt(31),
    "siafi_id" : NumberInt(4191),
    "ddd" : NumberInt(31),
    "fuso_horario" : "America/Sao_Paulo"
}
{
    "_id" : ObjectId("673e5ac6909e0611d9239bb9"),
    "index" : NumberInt(105),
    "Unnamed: 0" : NumberInt(843),
    "codigo_ibge" : NumberInt(3109709),
    "nome" : "Cachoeira de Minas",
    "latitude" : -22.3511,
    "longitude" : -45.7809,
    "capital" : NumberInt(0),
    "codigo_uf" : NumberInt(31),
    "siafi_id" : NumberInt(4193),
    "ddd" : NumberInt(35),
    "fuso_horario" : "America/Sao_Paulo"
}
{
    "_id" : ObjectId("673e5ac6909e0611d9239bba"),
    "index" : NumberInt(106),
    "Unnamed: 0" : NumberInt(844),
    "codigo_ibge" : NumberInt(3102704),
    "nome" : "Cachoeira de Pajeú",
    "latitude" : -15.9688,
    "longitude" : -41.4948,
    "capital" : NumberInt(0),
    "codigo_uf" : NumberInt(31),
    "siafi_id" : NumberInt(4053),
    "ddd" : NumberInt(33),
    "fuso_horario" : "America/Sao_Paulo"
}
{
    "_id" : ObjectId("673e5ac6909e0611d9239bbb"),
    "index" : NumberInt(107),
    "Unnamed: 0" : NumberInt(850),
    "codigo_ibge" : NumberInt(3109808),
    "nome" : "Cachoeira Dourada",
    "latitude" : -18.5161,
    "longitude" : -49.5039,
    "capital" : NumberInt(0),
    "codigo_uf" : NumberInt(31),
    "siafi_id" : NumberInt(4195),
    "ddd" : NumberInt(34),
    "fuso_horario" : "America/Sao_Paulo"
}
{
    "_id" : ObjectId("673e5ac6909e0611d9239bbc"),
    "index" : NumberInt(108),
    "Unnamed: 0" : NumberInt(868),
    "codigo_ibge" : NumberInt(3109907),
    "nome" : "Caetanópolis",
    "latitude" : -19.2971,
    "longitude" : -44.4189,
    "capital" : NumberInt(0),
    "codigo_uf" : NumberInt(31),
    "siafi_id" : NumberInt(4197),
    "ddd" : NumberInt(31),
    "fuso_horario" : "America/Sao_Paulo"
}
{
    "_id" : ObjectId("673e5ac6909e0611d9239bbd"),
    "index" : NumberInt(109),
    "Unnamed: 0" : NumberInt(870),
    "codigo_ibge" : NumberInt(3110004),
    "nome" : "Caeté",
    "latitude" : -19.8826,
    "longitude" : -43.6704,
    "capital" : NumberInt(0),
    "codigo_uf" : NumberInt(31),
    "siafi_id" : NumberInt(4199),
    "ddd" : NumberInt(31),
    "fuso_horario" : "America/Sao_Paulo"
}
{
    "_id" : ObjectId("673e5ac6909e0611d9239bbe"),
    "index" : NumberInt(110),
    "Unnamed: 0" : NumberInt(879),
    "codigo_ibge" : NumberInt(3110103),
    "nome" : "Caiana",
    "latitude" : -20.6956,
    "longitude" : -41.9292,
    "capital" : NumberInt(0),
    "codigo_uf" : NumberInt(31),
    "siafi_id" : NumberInt(4201),
    "ddd" : NumberInt(32),
    "fuso_horario" : "America/Sao_Paulo"
}
{
    "_id" : ObjectId("673e5ac6909e0611d9239bbf"),
    "index" : NumberInt(111),
    "Unnamed: 0" : NumberInt(901),
    "codigo_ibge" : NumberInt(3110202),
    "nome" : "Cajuri",
    "latitude" : -20.7903,
    "longitude" : -42.7925,
    "capital" : NumberInt(0),
    "codigo_uf" : NumberInt(31),
    "siafi_id" : NumberInt(4203),
    "ddd" : NumberInt(31),
    "fuso_horario" : "America/Sao_Paulo"
}
{
    "_id" : ObjectId("673e5ac6909e0611d9239bc0"),
    "index" : NumberInt(112),
    "Unnamed: 0" : NumberInt(905),
    "codigo_ibge" : NumberInt(3110301),
    "nome" : "Caldas",
    "latitude" : -21.9183,
    "longitude" : -46.3843,
    "capital" : NumberInt(0),
    "codigo_uf" : NumberInt(31),
    "siafi_id" : NumberInt(4205),
    "ddd" : NumberInt(35),
    "fuso_horario" : "America/Sao_Paulo"
}
{
    "_id" : ObjectId("673e5ac6909e0611d9239bc1"),
    "index" : NumberInt(113),
    "Unnamed: 0" : NumberInt(916),
    "codigo_ibge" : NumberInt(3110400),
    "nome" : "Camacho",
    "latitude" : -20.6294,
    "longitude" : -45.1593,
    "capital" : NumberInt(0),
    "codigo_uf" : NumberInt(31),
    "siafi_id" : NumberInt(4207),
    "ddd" : NumberInt(37),
    "fuso_horario" : "America/Sao_Paulo"
}
{
    "_id" : ObjectId("673e5ac6909e0611d9239bc2"),
    "index" : NumberInt(114),
    "Unnamed: 0" : NumberInt(919),
    "codigo_ibge" : NumberInt(3110509),
    "nome" : "Camanducaia",
    "latitude" : -22.7515,
    "longitude" : -46.1494,
    "capital" : NumberInt(0),
    "codigo_uf" : NumberInt(31),
    "siafi_id" : NumberInt(4209),
    "ddd" : NumberInt(35),
    "fuso_horario" : "America/Sao_Paulo"
}
{
    "_id" : ObjectId("673e5ac6909e0611d9239bc3"),
    "index" : NumberInt(115),
    "Unnamed: 0" : NumberInt(930),
    "codigo_ibge" : NumberInt(3110608),
    "nome" : "Cambuí",
    "latitude" : -22.6115,
    "longitude" : -46.0572,
    "capital" : NumberInt(0),
    "codigo_uf" : NumberInt(31),
    "siafi_id" : NumberInt(4211),
    "ddd" : NumberInt(35),
    "fuso_horario" : "America/Sao_Paulo"
}
{
    "_id" : ObjectId("673e5ac6909e0611d9239bc4"),
    "index" : NumberInt(116),
    "Unnamed: 0" : NumberInt(931),
    "codigo_ibge" : NumberInt(3110707),
    "nome" : "Cambuquira",
    "latitude" : -21.854,
    "longitude" : -45.2896,
    "capital" : NumberInt(0),
    "codigo_uf" : NumberInt(31),
    "siafi_id" : NumberInt(4213),
    "ddd" : NumberInt(35),
    "fuso_horario" : "America/Sao_Paulo"
}
{
    "_id" : ObjectId("673e5ac6909e0611d9239bc5"),
    "index" : NumberInt(117),
    "Unnamed: 0" : NumberInt(935),
    "codigo_ibge" : NumberInt(3110806),
    "nome" : "Campanário",
    "latitude" : -18.2427,
    "longitude" : -41.7355,
    "capital" : NumberInt(0),
    "codigo_uf" : NumberInt(31),
    "siafi_id" : NumberInt(4215),
    "ddd" : NumberInt(33),
    "fuso_horario" : "America/Sao_Paulo"
}
{
    "_id" : ObjectId("673e5ac6909e0611d9239bc6"),
    "index" : NumberInt(118),
    "Unnamed: 0" : NumberInt(936),
    "codigo_ibge" : NumberInt(3110905),
    "nome" : "Campanha",
    "latitude" : -21.836,
    "longitude" : -45.4004,
    "capital" : NumberInt(0),
    "codigo_uf" : NumberInt(31),
    "siafi_id" : NumberInt(4217),
    "ddd" : NumberInt(35),
    "fuso_horario" : "America/Sao_Paulo"
}
{
    "_id" : ObjectId("673e5ac6909e0611d9239bc7"),
    "index" : NumberInt(119),
    "Unnamed: 0" : NumberInt(937),
    "codigo_ibge" : NumberInt(3111002),
    "nome" : "Campestre",
    "latitude" : -21.7079,
    "longitude" : -46.2381,
    "capital" : NumberInt(0),
    "codigo_uf" : NumberInt(31),
    "siafi_id" : NumberInt(4219),
    "ddd" : NumberInt(35),
    "fuso_horario" : "America/Sao_Paulo"
}
{
    "_id" : ObjectId("673e5ac6909e0611d9239bc8"),
    "index" : NumberInt(120),
    "Unnamed: 0" : NumberInt(948),
    "codigo_ibge" : NumberInt(3111101),
    "nome" : "Campina Verde",
    "latitude" : -19.5382,
    "longitude" : -49.4862,
    "capital" : NumberInt(0),
    "codigo_uf" : NumberInt(31),
    "siafi_id" : NumberInt(4221),
    "ddd" : NumberInt(34),
    "fuso_horario" : "America/Sao_Paulo"
}
{
    "_id" : ObjectId("673e5ac6909e0611d9239bc9"),
    "index" : NumberInt(121),
    "Unnamed: 0" : NumberInt(960),
    "codigo_ibge" : NumberInt(3111150),
    "nome" : "Campo Azul",
    "latitude" : -16.5028,
    "longitude" : -44.8096,
    "capital" : NumberInt(0),
    "codigo_uf" : NumberInt(31),
    "siafi_id" : NumberInt(580),
    "ddd" : NumberInt(38),
    "fuso_horario" : "America/Sao_Paulo"
}
{
    "_id" : ObjectId("673e5ac6909e0611d9239bca"),
    "index" : NumberInt(122),
    "Unnamed: 0" : NumberInt(961),
    "codigo_ibge" : NumberInt(3111200),
    "nome" : "Campo Belo",
    "latitude" : -20.8932,
    "longitude" : -45.2699,
    "capital" : NumberInt(0),
    "codigo_uf" : NumberInt(31),
    "siafi_id" : NumberInt(4223),
    "ddd" : NumberInt(35),
    "fuso_horario" : "America/Sao_Paulo"
}
{
    "_id" : ObjectId("673e5ac6909e0611d9239bcb"),
    "index" : NumberInt(123),
    "Unnamed: 0" : NumberInt(966),
    "codigo_ibge" : NumberInt(3111309),
    "nome" : "Campo do Meio",
    "latitude" : -21.1127,
    "longitude" : -45.8273,
    "capital" : NumberInt(0),
    "codigo_uf" : NumberInt(31),
    "siafi_id" : NumberInt(4225),
    "ddd" : NumberInt(35),
    "fuso_horario" : "America/Sao_Paulo"
}
{
    "_id" : ObjectId("673e5ac6909e0611d9239bcc"),
    "index" : NumberInt(124),
    "Unnamed: 0" : NumberInt(969),
    "codigo_ibge" : NumberInt(3111408),
    "nome" : "Campo Florido",
    "latitude" : -19.7631,
    "longitude" : -48.5716,
    "capital" : NumberInt(0),
    "codigo_uf" : NumberInt(31),
    "siafi_id" : NumberInt(4227),
    "ddd" : NumberInt(34),
    "fuso_horario" : "America/Sao_Paulo"
}
{
    "_id" : ObjectId("673e5ac6909e0611d9239bcd"),
    "index" : NumberInt(125),
    "Unnamed: 0" : NumberInt(986),
    "codigo_ibge" : NumberInt(3111507),
    "nome" : "Campos Altos",
    "latitude" : -19.6914,
    "longitude" : -46.1725,
    "capital" : NumberInt(0),
    "codigo_uf" : NumberInt(31),
    "siafi_id" : NumberInt(4229),
    "ddd" : NumberInt(37),
    "fuso_horario" : "America/Sao_Paulo"
}
{
    "_id" : ObjectId("673e5ac6909e0611d9239bce"),
    "index" : NumberInt(126),
    "Unnamed: 0" : NumberInt(992),
    "codigo_ibge" : NumberInt(3111606),
    "nome" : "Campos Gerais",
    "latitude" : -21.237,
    "longitude" : -45.7569,
    "capital" : NumberInt(0),
    "codigo_uf" : NumberInt(31),
    "siafi_id" : NumberInt(4231),
    "ddd" : NumberInt(35),
    "fuso_horario" : "America/Sao_Paulo"
}
{
    "_id" : ObjectId("673e5ac6909e0611d9239bcf"),
    "index" : NumberInt(127),
    "Unnamed: 0" : NumberInt(999),
    "codigo_ibge" : NumberInt(3111903),
    "nome" : "Cana Verde",
    "latitude" : -21.0232,
    "longitude" : -45.1801,
    "capital" : NumberInt(0),
    "codigo_uf" : NumberInt(31),
    "siafi_id" : NumberInt(4237),
    "ddd" : NumberInt(35),
    "fuso_horario" : "America/Sao_Paulo"
}
{
    "_id" : ObjectId("673e5ac6909e0611d9239bd0"),
    "index" : NumberInt(128),
    "Unnamed: 0" : NumberInt(1000),
    "codigo_ibge" : NumberInt(3111705),
    "nome" : "Canaã",
    "latitude" : -20.6869,
    "longitude" : -42.6167,
    "capital" : NumberInt(0),
    "codigo_uf" : NumberInt(31),
    "siafi_id" : NumberInt(4233),
    "ddd" : NumberInt(31),
    "fuso_horario" : "America/Sao_Paulo"
}
{
    "_id" : ObjectId("673e5ac6909e0611d9239bd1"),
    "index" : NumberInt(129),
    "Unnamed: 0" : NumberInt(1006),
    "codigo_ibge" : NumberInt(3111804),
    "nome" : "Canápolis",
    "latitude" : -18.7212,
    "longitude" : -49.2035,
    "capital" : NumberInt(0),
    "codigo_uf" : NumberInt(31),
    "siafi_id" : NumberInt(4235),
    "ddd" : NumberInt(34),
    "fuso_horario" : "America/Sao_Paulo"
}
{
    "_id" : ObjectId("673e5ac6909e0611d9239bd2"),
    "index" : NumberInt(130),
    "Unnamed: 0" : NumberInt(1014),
    "codigo_ibge" : NumberInt(3112000),
    "nome" : "Candeias",
    "latitude" : -20.7692,
    "longitude" : -45.2765,
    "capital" : NumberInt(0),
    "codigo_uf" : NumberInt(31),
    "siafi_id" : NumberInt(4239),
    "ddd" : NumberInt(35),
    "fuso_horario" : "America/Sao_Paulo"
}
{
    "_id" : ObjectId("673e5ac6909e0611d9239bd3"),
    "index" : NumberInt(131),
    "Unnamed: 0" : NumberInt(1041),
    "codigo_ibge" : NumberInt(3112059),
    "nome" : "Cantagalo",
    "latitude" : -18.5248,
    "longitude" : -42.6223,
    "capital" : NumberInt(0),
    "codigo_uf" : NumberInt(31),
    "siafi_id" : NumberInt(582),
    "ddd" : NumberInt(33),
    "fuso_horario" : "America/Sao_Paulo"
}
{
    "_id" : ObjectId("673e5ac6909e0611d9239bd4"),
    "index" : NumberInt(132),
    "Unnamed: 0" : NumberInt(1055),
    "codigo_ibge" : NumberInt(3112109),
    "nome" : "Caparaó",
    "latitude" : -20.5289,
    "longitude" : -41.9061,
    "capital" : NumberInt(0),
    "codigo_uf" : NumberInt(31),
    "siafi_id" : NumberInt(4241),
    "ddd" : NumberInt(32),
    "fuso_horario" : "America/Sao_Paulo"
}
{
    "_id" : ObjectId("673e5ac6909e0611d9239bd5"),
    "index" : NumberInt(133),
    "Unnamed: 0" : NumberInt(1061),
    "codigo_ibge" : NumberInt(3112208),
    "nome" : "Capela Nova",
    "latitude" : -20.9179,
    "longitude" : -43.622,
    "capital" : NumberInt(0),
    "codigo_uf" : NumberInt(31),
    "siafi_id" : NumberInt(4243),
    "ddd" : NumberInt(31),
    "fuso_horario" : "America/Sao_Paulo"
}
{
    "_id" : ObjectId("673e5ac6909e0611d9239bd6"),
    "index" : NumberInt(134),
    "Unnamed: 0" : NumberInt(1062),
    "codigo_ibge" : NumberInt(3112307),
    "nome" : "Capelinha",
    "latitude" : -17.6888,
    "longitude" : -42.5147,
    "capital" : NumberInt(0),
    "codigo_uf" : NumberInt(31),
    "siafi_id" : NumberInt(4245),
    "ddd" : NumberInt(33),
    "fuso_horario" : "America/Sao_Paulo"
}
{
    "_id" : ObjectId("673e5ac6909e0611d9239bd7"),
    "index" : NumberInt(135),
    "Unnamed: 0" : NumberInt(1063),
    "codigo_ibge" : NumberInt(3112406),
    "nome" : "Capetinga",
    "latitude" : -20.6163,
    "longitude" : -47.0571,
    "capital" : NumberInt(0),
    "codigo_uf" : NumberInt(31),
    "siafi_id" : NumberInt(4247),
    "ddd" : NumberInt(35),
    "fuso_horario" : "America/Sao_Paulo"
}
{
    "_id" : ObjectId("673e5ac6909e0611d9239bd8"),
    "index" : NumberInt(136),
    "Unnamed: 0" : NumberInt(1065),
    "codigo_ibge" : NumberInt(3112505),
    "nome" : "Capim Branco",
    "latitude" : -19.5471,
    "longitude" : -44.1304,
    "capital" : NumberInt(0),
    "codigo_uf" : NumberInt(31),
    "siafi_id" : NumberInt(4249),
    "ddd" : NumberInt(31),
    "fuso_horario" : "America/Sao_Paulo"
}
{
    "_id" : ObjectId("673e5ac6909e0611d9239bd9"),
    "index" : NumberInt(137),
    "Unnamed: 0" : NumberInt(1067),
    "codigo_ibge" : NumberInt(3112604),
    "nome" : "Capinópolis",
    "latitude" : -18.6862,
    "longitude" : -49.5706,
    "capital" : NumberInt(0),
    "codigo_uf" : NumberInt(31),
    "siafi_id" : NumberInt(4251),
    "ddd" : NumberInt(34),
    "fuso_horario" : "America/Sao_Paulo"
}
{
    "_id" : ObjectId("673e5ac6909e0611d9239bda"),
    "index" : NumberInt(138),
    "Unnamed: 0" : NumberInt(1072),
    "codigo_ibge" : NumberInt(3112653),
    "nome" : "Capitão Andrade",
    "latitude" : -19.0748,
    "longitude" : -41.8614,
    "capital" : NumberInt(0),
    "codigo_uf" : NumberInt(31),
    "siafi_id" : NumberInt(2651),
    "ddd" : NumberInt(33),
    "fuso_horario" : "America/Sao_Paulo"
}
{
    "_id" : ObjectId("673e5ac6909e0611d9239bdb"),
    "index" : NumberInt(139),
    "Unnamed: 0" : NumberInt(1074),
    "codigo_ibge" : NumberInt(3112703),
    "nome" : "Capitão Enéas",
    "latitude" : -16.3265,
    "longitude" : -43.7084,
    "capital" : NumberInt(0),
    "codigo_uf" : NumberInt(31),
    "siafi_id" : NumberInt(4253),
    "ddd" : NumberInt(38),
    "fuso_horario" : "America/Sao_Paulo"
}
{
    "_id" : ObjectId("673e5ac6909e0611d9239bdc"),
    "index" : NumberInt(140),
    "Unnamed: 0" : NumberInt(1078),
    "codigo_ibge" : NumberInt(3112802),
    "nome" : "Capitólio",
    "latitude" : -20.6164,
    "longitude" : -46.0493,
    "capital" : NumberInt(0),
    "codigo_uf" : NumberInt(31),
    "siafi_id" : NumberInt(4255),
    "ddd" : NumberInt(37),
    "fuso_horario" : "America/Sao_Paulo"
}
{
    "_id" : ObjectId("673e5ac6909e0611d9239bdd"),
    "index" : NumberInt(141),
    "Unnamed: 0" : NumberInt(1084),
    "codigo_ibge" : NumberInt(3112901),
    "nome" : "Caputira",
    "latitude" : -20.1703,
    "longitude" : -42.2683,
    "capital" : NumberInt(0),
    "codigo_uf" : NumberInt(31),
    "siafi_id" : NumberInt(4257),
    "ddd" : NumberInt(31),
    "fuso_horario" : "America/Sao_Paulo"
}
{
    "_id" : ObjectId("673e5ac6909e0611d9239bde"),
    "index" : NumberInt(142),
    "Unnamed: 0" : NumberInt(1090),
    "codigo_ibge" : NumberInt(3113008),
    "nome" : "Caraí",
    "latitude" : -17.1862,
    "longitude" : -41.7004,
    "capital" : NumberInt(0),
    "codigo_uf" : NumberInt(31),
    "siafi_id" : NumberInt(4259),
    "ddd" : NumberInt(33),
    "fuso_horario" : "America/Sao_Paulo"
}
{
    "_id" : ObjectId("673e5ac6909e0611d9239bdf"),
    "index" : NumberInt(143),
    "Unnamed: 0" : NumberInt(1093),
    "codigo_ibge" : NumberInt(3113107),
    "nome" : "Caranaíba",
    "latitude" : -20.8707,
    "longitude" : -43.7417,
    "capital" : NumberInt(0),
    "codigo_uf" : NumberInt(31),
    "siafi_id" : NumberInt(4261),
    "ddd" : NumberInt(31),
    "fuso_horario" : "America/Sao_Paulo"
}
{
    "_id" : ObjectId("673e5ac6909e0611d9239be0"),
    "index" : NumberInt(144),
    "Unnamed: 0" : NumberInt(1094),
    "codigo_ibge" : NumberInt(3113206),
    "nome" : "Carandaí",
    "latitude" : -20.9566,
    "longitude" : -43.811,
    "capital" : NumberInt(0),
    "codigo_uf" : NumberInt(31),
    "siafi_id" : NumberInt(4263),
    "ddd" : NumberInt(32),
    "fuso_horario" : "America/Sao_Paulo"
}
{
    "_id" : ObjectId("673e5ac6909e0611d9239be1"),
    "index" : NumberInt(145),
    "Unnamed: 0" : NumberInt(1095),
    "codigo_ibge" : NumberInt(3113305),
    "nome" : "Carangola",
    "latitude" : -20.7343,
    "longitude" : -42.0313,
    "capital" : NumberInt(0),
    "codigo_uf" : NumberInt(31),
    "siafi_id" : NumberInt(4265),
    "ddd" : NumberInt(32),
    "fuso_horario" : "America/Sao_Paulo"
}
{
    "_id" : ObjectId("673e5ac6909e0611d9239be2"),
    "index" : NumberInt(146),
    "Unnamed: 0" : NumberInt(1098),
    "codigo_ibge" : NumberInt(3113404),
    "nome" : "Caratinga",
    "latitude" : -19.7868,
    "longitude" : -42.1292,
    "capital" : NumberInt(0),
    "codigo_uf" : NumberInt(31),
    "siafi_id" : NumberInt(4267),
    "ddd" : NumberInt(33),
    "fuso_horario" : "America/Sao_Paulo"
}
{
    "_id" : ObjectId("673e5ac6909e0611d9239be3"),
    "index" : NumberInt(147),
    "Unnamed: 0" : NumberInt(1105),
    "codigo_ibge" : NumberInt(3113503),
    "nome" : "Carbonita",
    "latitude" : -17.5255,
    "longitude" : -43.0137,
    "capital" : NumberInt(0),
    "codigo_uf" : NumberInt(31),
    "siafi_id" : NumberInt(4269),
    "ddd" : NumberInt(38),
    "fuso_horario" : "America/Sao_Paulo"
}
{
    "_id" : ObjectId("673e5ac6909e0611d9239be4"),
    "index" : NumberInt(148),
    "Unnamed: 0" : NumberInt(1109),
    "codigo_ibge" : NumberInt(3113602),
    "nome" : "Careaçu",
    "latitude" : -22.0424,
    "longitude" : -45.696,
    "capital" : NumberInt(0),
    "codigo_uf" : NumberInt(31),
    "siafi_id" : NumberInt(4271),
    "ddd" : NumberInt(35),
    "fuso_horario" : "America/Sao_Paulo"
}
{
    "_id" : ObjectId("673e5ac6909e0611d9239be5"),
    "index" : NumberInt(149),
    "Unnamed: 0" : NumberInt(1124),
    "codigo_ibge" : NumberInt(3113701),
    "nome" : "Carlos Chagas",
    "latitude" : -17.6973,
    "longitude" : -40.7723,
    "capital" : NumberInt(0),
    "codigo_uf" : NumberInt(31),
    "siafi_id" : NumberInt(4273),
    "ddd" : NumberInt(33),
    "fuso_horario" : "America/Sao_Paulo"
}
{
    "_id" : ObjectId("673e5ac6909e0611d9239be6"),
    "index" : NumberInt(150),
    "Unnamed: 0" : NumberInt(1126),
    "codigo_ibge" : NumberInt(3113800),
    "nome" : "Carmésia",
    "latitude" : -19.0877,
    "longitude" : -43.1382,
    "capital" : NumberInt(0),
    "codigo_uf" : NumberInt(31),
    "siafi_id" : NumberInt(4275),
    "ddd" : NumberInt(31),
    "fuso_horario" : "America/Sao_Paulo"
}
{
    "_id" : ObjectId("673e5ac6909e0611d9239be7"),
    "index" : NumberInt(151),
    "Unnamed: 0" : NumberInt(1128),
    "codigo_ibge" : NumberInt(3113909),
    "nome" : "Carmo da Cachoeira",
    "latitude" : -21.4633,
    "longitude" : -45.2201,
    "capital" : NumberInt(0),
    "codigo_uf" : NumberInt(31),
    "siafi_id" : NumberInt(4277),
    "ddd" : NumberInt(35),
    "fuso_horario" : "America/Sao_Paulo"
}
{
    "_id" : ObjectId("673e5ac6909e0611d9239be8"),
    "index" : NumberInt(152),
    "Unnamed: 0" : NumberInt(1129),
    "codigo_ibge" : NumberInt(3114006),
    "nome" : "Carmo da Mata",
    "latitude" : -20.5575,
    "longitude" : -44.8735,
    "capital" : NumberInt(0),
    "codigo_uf" : NumberInt(31),
    "siafi_id" : NumberInt(4279),
    "ddd" : NumberInt(37),
    "fuso_horario" : "America/Sao_Paulo"
}
{
    "_id" : ObjectId("673e5ac6909e0611d9239be9"),
    "index" : NumberInt(153),
    "Unnamed: 0" : NumberInt(1130),
    "codigo_ibge" : NumberInt(3114105),
    "nome" : "Carmo de Minas",
    "latitude" : -22.1204,
    "longitude" : -45.1307,
    "capital" : NumberInt(0),
    "codigo_uf" : NumberInt(31),
    "siafi_id" : NumberInt(4281),
    "ddd" : NumberInt(35),
    "fuso_horario" : "America/Sao_Paulo"
}
{
    "_id" : ObjectId("673e5ac6909e0611d9239bea"),
    "index" : NumberInt(154),
    "Unnamed: 0" : NumberInt(1131),
    "codigo_ibge" : NumberInt(3114204),
    "nome" : "Carmo do Cajuru",
    "latitude" : -20.1912,
    "longitude" : -44.7664,
    "capital" : NumberInt(0),
    "codigo_uf" : NumberInt(31),
    "siafi_id" : NumberInt(4283),
    "ddd" : NumberInt(37),
    "fuso_horario" : "America/Sao_Paulo"
}
{
    "_id" : ObjectId("673e5ac6909e0611d9239beb"),
    "index" : NumberInt(155),
    "Unnamed: 0" : NumberInt(1132),
    "codigo_ibge" : NumberInt(3114303),
    "nome" : "Carmo do Paranaíba",
    "latitude" : -18.991,
    "longitude" : -46.3167,
    "capital" : NumberInt(0),
    "codigo_uf" : NumberInt(31),
    "siafi_id" : NumberInt(4285),
    "ddd" : NumberInt(34),
    "fuso_horario" : "America/Sao_Paulo"
}
{
    "_id" : ObjectId("673e5ac6909e0611d9239bec"),
    "index" : NumberInt(156),
    "Unnamed: 0" : NumberInt(1133),
    "codigo_ibge" : NumberInt(3114402),
    "nome" : "Carmo do Rio Claro",
    "latitude" : -20.9736,
    "longitude" : -46.1149,
    "capital" : NumberInt(0),
    "codigo_uf" : NumberInt(31),
    "siafi_id" : NumberInt(4287),
    "ddd" : NumberInt(35),
    "fuso_horario" : "America/Sao_Paulo"
}
{
    "_id" : ObjectId("673e5ac6909e0611d9239bed"),
    "index" : NumberInt(157),
    "Unnamed: 0" : NumberInt(1137),
    "codigo_ibge" : NumberInt(3114501),
    "nome" : "Carmópolis de Minas",
    "latitude" : -20.5396,
    "longitude" : -44.6336,
    "capital" : NumberInt(0),
    "codigo_uf" : NumberInt(31),
    "siafi_id" : NumberInt(4289),
    "ddd" : NumberInt(37),
    "fuso_horario" : "America/Sao_Paulo"
}
{
    "_id" : ObjectId("673e5ac6909e0611d9239bee"),
    "index" : NumberInt(158),
    "Unnamed: 0" : NumberInt(1143),
    "codigo_ibge" : NumberInt(3114550),
    "nome" : "Carneirinho",
    "latitude" : -19.6987,
    "longitude" : -50.6894,
    "capital" : NumberInt(0),
    "codigo_uf" : NumberInt(31),
    "siafi_id" : NumberInt(2685),
    "ddd" : NumberInt(34),
    "fuso_horario" : "America/Sao_Paulo"
}
{
    "_id" : ObjectId("673e5ac6909e0611d9239bef"),
    "index" : NumberInt(159),
    "Unnamed: 0" : NumberInt(1148),
    "codigo_ibge" : NumberInt(3114600),
    "nome" : "Carrancas",
    "latitude" : -21.4898,
    "longitude" : -44.6446,
    "capital" : NumberInt(0),
    "codigo_uf" : NumberInt(31),
    "siafi_id" : NumberInt(4291),
    "ddd" : NumberInt(35),
    "fuso_horario" : "America/Sao_Paulo"
}
{
    "_id" : ObjectId("673e5ac6909e0611d9239bf0"),
    "index" : NumberInt(160),
    "Unnamed: 0" : NumberInt(1153),
    "codigo_ibge" : NumberInt(3114709),
    "nome" : "Carvalhópolis",
    "latitude" : -21.7735,
    "longitude" : -45.8421,
    "capital" : NumberInt(0),
    "codigo_uf" : NumberInt(31),
    "siafi_id" : NumberInt(4293),
    "ddd" : NumberInt(35),
    "fuso_horario" : "America/Sao_Paulo"
}
{
    "_id" : ObjectId("673e5ac6909e0611d9239bf1"),
    "index" : NumberInt(161),
    "Unnamed: 0" : NumberInt(1154),
    "codigo_ibge" : NumberInt(3114808),
    "nome" : "Carvalhos",
    "latitude" : -22.0,
    "longitude" : -44.4632,
    "capital" : NumberInt(0),
    "codigo_uf" : NumberInt(31),
    "siafi_id" : NumberInt(4295),
    "ddd" : NumberInt(35),
    "fuso_horario" : "America/Sao_Paulo"
}
{
    "_id" : ObjectId("673e5ac6909e0611d9239bf2"),
    "index" : NumberInt(162),
    "Unnamed: 0" : NumberInt(1156),
    "codigo_ibge" : NumberInt(3114907),
    "nome" : "Casa Grande",
    "latitude" : -20.7925,
    "longitude" : -43.9343,
    "capital" : NumberInt(0),
    "codigo_uf" : NumberInt(31),
    "siafi_id" : NumberInt(4297),
    "ddd" : NumberInt(31),
    "fuso_horario" : "America/Sao_Paulo"
}
{
    "_id" : ObjectId("673e5ac6909e0611d9239bf3"),
    "index" : NumberInt(163),
    "Unnamed: 0" : NumberInt(1159),
    "codigo_ibge" : NumberInt(3115003),
    "nome" : "Cascalho Rico",
    "latitude" : -18.5772,
    "longitude" : -47.8716,
    "capital" : NumberInt(0),
    "codigo_uf" : NumberInt(31),
    "siafi_id" : NumberInt(4299),
    "ddd" : NumberInt(34),
    "fuso_horario" : "America/Sao_Paulo"
}
{
    "_id" : ObjectId("673e5ac6909e0611d9239bf4"),
    "index" : NumberInt(164),
    "Unnamed: 0" : NumberInt(1167),
    "codigo_ibge" : NumberInt(3115102),
    "nome" : "Cássia",
    "latitude" : -20.5831,
    "longitude" : -46.9201,
    "capital" : NumberInt(0),
    "codigo_uf" : NumberInt(31),
    "siafi_id" : NumberInt(4301),
    "ddd" : NumberInt(35),
    "fuso_horario" : "America/Sao_Paulo"
}
{
    "_id" : ObjectId("673e5ac6909e0611d9239bf5"),
    "index" : NumberInt(165),
    "Unnamed: 0" : NumberInt(1179),
    "codigo_ibge" : NumberInt(3115300),
    "nome" : "Cataguases",
    "latitude" : -21.3924,
    "longitude" : -42.6896,
    "capital" : NumberInt(0),
    "codigo_uf" : NumberInt(31),
    "siafi_id" : NumberInt(4305),
    "ddd" : NumberInt(32),
    "fuso_horario" : "America/Sao_Paulo"
}
{
    "_id" : ObjectId("673e5ac6909e0611d9239bf6"),
    "index" : NumberInt(166),
    "Unnamed: 0" : NumberInt(1185),
    "codigo_ibge" : NumberInt(3115359),
    "nome" : "Catas Altas",
    "latitude" : -20.0734,
    "longitude" : -43.4061,
    "capital" : NumberInt(0),
    "codigo_uf" : NumberInt(31),
    "siafi_id" : NumberInt(584),
    "ddd" : NumberInt(31),
    "fuso_horario" : "America/Sao_Paulo"
}
{
    "_id" : ObjectId("673e5ac6909e0611d9239bf7"),
    "index" : NumberInt(167),
    "Unnamed: 0" : NumberInt(1186),
    "codigo_ibge" : NumberInt(3115409),
    "nome" : "Catas Altas da Noruega",
    "latitude" : -20.6901,
    "longitude" : -43.4939,
    "capital" : NumberInt(0),
    "codigo_uf" : NumberInt(31),
    "siafi_id" : NumberInt(4307),
    "ddd" : NumberInt(31),
    "fuso_horario" : "America/Sao_Paulo"
}
{
    "_id" : ObjectId("673e5ac6909e0611d9239bf8"),
    "index" : NumberInt(168),
    "Unnamed: 0" : NumberInt(1194),
    "codigo_ibge" : NumberInt(3115458),
    "nome" : "Catuji",
    "latitude" : -17.3018,
    "longitude" : -41.5276,
    "capital" : NumberInt(0),
    "codigo_uf" : NumberInt(31),
    "siafi_id" : NumberInt(2653),
    "ddd" : NumberInt(33),
    "fuso_horario" : "America/Sao_Paulo"
}
{
    "_id" : ObjectId("673e5ac6909e0611d9239bf9"),
    "index" : NumberInt(169),
    "Unnamed: 0" : NumberInt(1199),
    "codigo_ibge" : NumberInt(3115474),
    "nome" : "Catuti",
    "latitude" : -15.3616,
    "longitude" : -42.9627,
    "capital" : NumberInt(0),
    "codigo_uf" : NumberInt(31),
    "siafi_id" : NumberInt(586),
    "ddd" : NumberInt(38),
    "fuso_horario" : "America/Sao_Paulo"
}
{
    "_id" : ObjectId("673e5ac6909e0611d9239bfa"),
    "index" : NumberInt(170),
    "Unnamed: 0" : NumberInt(1202),
    "codigo_ibge" : NumberInt(3115508),
    "nome" : "Caxambu",
    "latitude" : -21.9753,
    "longitude" : -44.9319,
    "capital" : NumberInt(0),
    "codigo_uf" : NumberInt(31),
    "siafi_id" : NumberInt(4309),
    "ddd" : NumberInt(35),
    "fuso_horario" : "America/Sao_Paulo"
}
{
    "_id" : ObjectId("673e5ac6909e0611d9239bfb"),
    "index" : NumberInt(171),
    "Unnamed: 0" : NumberInt(1213),
    "codigo_ibge" : NumberInt(3115607),
    "nome" : "Cedro do Abaeté",
    "latitude" : -19.1458,
    "longitude" : -45.712,
    "capital" : NumberInt(0),
    "codigo_uf" : NumberInt(31),
    "siafi_id" : NumberInt(4311),
    "ddd" : NumberInt(37),
    "fuso_horario" : "America/Sao_Paulo"
}
{
    "_id" : ObjectId("673e5ac6909e0611d9239bfc"),
    "index" : NumberInt(172),
    "Unnamed: 0" : NumberInt(1219),
    "codigo_ibge" : NumberInt(3115706),
    "nome" : "Central de Minas",
    "latitude" : -18.7612,
    "longitude" : -41.3143,
    "capital" : NumberInt(0),
    "codigo_uf" : NumberInt(31),
    "siafi_id" : NumberInt(4313),
    "ddd" : NumberInt(33),
    "fuso_horario" : "America/Sao_Paulo"
}
{
    "_id" : ObjectId("673e5ac6909e0611d9239bfd"),
    "index" : NumberInt(173),
    "Unnamed: 0" : NumberInt(1221),
    "codigo_ibge" : NumberInt(3115805),
    "nome" : "Centralina",
    "latitude" : -18.5852,
    "longitude" : -49.2014,
    "capital" : NumberInt(0),
    "codigo_uf" : NumberInt(31),
    "siafi_id" : NumberInt(4315),
    "ddd" : NumberInt(34),
    "fuso_horario" : "America/Sao_Paulo"
}
{
    "_id" : ObjectId("673e5ac6909e0611d9239bfe"),
    "index" : NumberInt(174),
    "Unnamed: 0" : NumberInt(1242),
    "codigo_ibge" : NumberInt(3115904),
    "nome" : "Chácara",
    "latitude" : -21.6733,
    "longitude" : -43.215,
    "capital" : NumberInt(0),
    "codigo_uf" : NumberInt(31),
    "siafi_id" : NumberInt(4317),
    "ddd" : NumberInt(32),
    "fuso_horario" : "America/Sao_Paulo"
}
{
    "_id" : ObjectId("673e5ac6909e0611d9239bff"),
    "index" : NumberInt(175),
    "Unnamed: 0" : NumberInt(1243),
    "codigo_ibge" : NumberInt(3116001),
    "nome" : "Chalé",
    "latitude" : -20.0453,
    "longitude" : -41.6897,
    "capital" : NumberInt(0),
    "codigo_uf" : NumberInt(31),
    "siafi_id" : NumberInt(4319),
    "ddd" : NumberInt(33),
    "fuso_horario" : "America/Sao_Paulo"
}
{
    "_id" : ObjectId("673e5ac6909e0611d9239c00"),
    "index" : NumberInt(176),
    "Unnamed: 0" : NumberInt(1247),
    "codigo_ibge" : NumberInt(3116100),
    "nome" : "Chapada do Norte",
    "latitude" : -17.0881,
    "longitude" : -42.5392,
    "capital" : NumberInt(0),
    "codigo_uf" : NumberInt(31),
    "siafi_id" : NumberInt(4321),
    "ddd" : NumberInt(33),
    "fuso_horario" : "America/Sao_Paulo"
}
{
    "_id" : ObjectId("673e5ac6909e0611d9239c01"),
    "index" : NumberInt(177),
    "Unnamed: 0" : NumberInt(1249),
    "codigo_ibge" : NumberInt(3116159),
    "nome" : "Chapada Gaúcha",
    "latitude" : -15.3014,
    "longitude" : -45.6116,
    "capital" : NumberInt(0),
    "codigo_uf" : NumberInt(31),
    "siafi_id" : NumberInt(588),
    "ddd" : NumberInt(38),
    "fuso_horario" : "America/Sao_Paulo"
}
{
    "_id" : ObjectId("673e5ac6909e0611d9239c02"),
    "index" : NumberInt(178),
    "Unnamed: 0" : NumberInt(1261),
    "codigo_ibge" : NumberInt(3116209),
    "nome" : "Chiador",
    "latitude" : -21.9996,
    "longitude" : -43.0617,
    "capital" : NumberInt(0),
    "codigo_uf" : NumberInt(31),
    "siafi_id" : NumberInt(4323),
    "ddd" : NumberInt(32),
    "fuso_horario" : "America/Sao_Paulo"
}
{
    "_id" : ObjectId("673e5ac6909e0611d9239c03"),
    "index" : NumberInt(179),
    "Unnamed: 0" : NumberInt(1277),
    "codigo_ibge" : NumberInt(3116308),
    "nome" : "Cipotânea",
    "latitude" : -20.9026,
    "longitude" : -43.3629,
    "capital" : NumberInt(0),
    "codigo_uf" : NumberInt(31),
    "siafi_id" : NumberInt(4325),
    "ddd" : NumberInt(32),
    "fuso_horario" : "America/Sao_Paulo"
}
{
    "_id" : ObjectId("673e5ac6909e0611d9239c04"),
    "index" : NumberInt(180),
    "Unnamed: 0" : NumberInt(1279),
    "codigo_ibge" : NumberInt(3116407),
    "nome" : "Claraval",
    "latitude" : -20.397,
    "longitude" : -47.2768,
    "capital" : NumberInt(0),
    "codigo_uf" : NumberInt(31),
    "siafi_id" : NumberInt(4327),
    "ddd" : NumberInt(34),
    "fuso_horario" : "America/Sao_Paulo"
}
{
    "_id" : ObjectId("673e5ac6909e0611d9239c05"),
    "index" : NumberInt(181),
    "Unnamed: 0" : NumberInt(1280),
    "codigo_ibge" : NumberInt(3116506),
    "nome" : "Claro dos Poções",
    "latitude" : -17.082,
    "longitude" : -44.2061,
    "capital" : NumberInt(0),
    "codigo_uf" : NumberInt(31),
    "siafi_id" : NumberInt(4329),
    "ddd" : NumberInt(38),
    "fuso_horario" : "America/Sao_Paulo"
}
{
    "_id" : ObjectId("673e5ac6909e0611d9239c06"),
    "index" : NumberInt(182),
    "Unnamed: 0" : NumberInt(1282),
    "codigo_ibge" : NumberInt(3116605),
    "nome" : "Cláudio",
    "latitude" : -20.4437,
    "longitude" : -44.7673,
    "capital" : NumberInt(0),
    "codigo_uf" : NumberInt(31),
    "siafi_id" : NumberInt(4331),
    "ddd" : NumberInt(37),
    "fuso_horario" : "America/Sao_Paulo"
}
{
    "_id" : ObjectId("673e5ac6909e0611d9239c07"),
    "index" : NumberInt(183),
    "Unnamed: 0" : NumberInt(1297),
    "codigo_ibge" : NumberInt(3116704),
    "nome" : "Coimbra",
    "latitude" : -20.8535,
    "longitude" : -42.8008,
    "capital" : NumberInt(0),
    "codigo_uf" : NumberInt(31),
    "siafi_id" : NumberInt(4333),
    "ddd" : NumberInt(32),
    "fuso_horario" : "America/Sao_Paulo"
}
{
    "_id" : ObjectId("673e5ac6909e0611d9239c08"),
    "index" : NumberInt(184),
    "Unnamed: 0" : NumberInt(1318),
    "codigo_ibge" : NumberInt(3116803),
    "nome" : "Coluna",
    "latitude" : -18.2311,
    "longitude" : -42.8352,
    "capital" : NumberInt(0),
    "codigo_uf" : NumberInt(31),
    "siafi_id" : NumberInt(4335),
    "ddd" : NumberInt(33),
    "fuso_horario" : "America/Sao_Paulo"
}
{
    "_id" : ObjectId("673e5ac6909e0611d9239c09"),
    "index" : NumberInt(185),
    "Unnamed: 0" : NumberInt(1320),
    "codigo_ibge" : NumberInt(3116902),
    "nome" : "Comendador Gomes",
    "latitude" : -19.6973,
    "longitude" : -49.0789,
    "capital" : NumberInt(0),
    "codigo_uf" : NumberInt(31),
    "siafi_id" : NumberInt(4337),
    "ddd" : NumberInt(34),
    "fuso_horario" : "America/Sao_Paulo"
}
{
    "_id" : ObjectId("673e5ac6909e0611d9239c0a"),
    "index" : NumberInt(186),
    "Unnamed: 0" : NumberInt(1322),
    "codigo_ibge" : NumberInt(3117009),
    "nome" : "Comercinho",
    "latitude" : -16.2963,
    "longitude" : -41.7945,
    "capital" : NumberInt(0),
    "codigo_uf" : NumberInt(31),
    "siafi_id" : NumberInt(4339),
    "ddd" : NumberInt(33),
    "fuso_horario" : "America/Sao_Paulo"
}
{
    "_id" : ObjectId("673e5ac6909e0611d9239c0b"),
    "index" : NumberInt(187),
    "Unnamed: 0" : NumberInt(1325),
    "codigo_ibge" : NumberInt(3117108),
    "nome" : "Conceição da Aparecida",
    "latitude" : -21.096,
    "longitude" : -46.2049,
    "capital" : NumberInt(0),
    "codigo_uf" : NumberInt(31),
    "siafi_id" : NumberInt(4341),
    "ddd" : NumberInt(35),
    "fuso_horario" : "America/Sao_Paulo"
}
{
    "_id" : ObjectId("673e5ac6909e0611d9239c0c"),
    "index" : NumberInt(188),
    "Unnamed: 0" : NumberInt(1327),
    "codigo_ibge" : NumberInt(3115201),
    "nome" : "Conceição da Barra de Minas",
    "latitude" : -21.1316,
    "longitude" : -44.4729,
    "capital" : NumberInt(0),
    "codigo_uf" : NumberInt(31),
    "siafi_id" : NumberInt(4303),
    "ddd" : NumberInt(32),
    "fuso_horario" : "America/Sao_Paulo"
}
{
    "_id" : ObjectId("673e5ac6909e0611d9239c0d"),
    "index" : NumberInt(189),
    "Unnamed: 0" : NumberInt(1329),
    "codigo_ibge" : NumberInt(3117306),
    "nome" : "Conceição das Alagoas",
    "latitude" : -19.9172,
    "longitude" : -48.3839,
    "capital" : NumberInt(0),
    "codigo_uf" : NumberInt(31),
    "siafi_id" : NumberInt(4345),
    "ddd" : NumberInt(34),
    "fuso_horario" : "America/Sao_Paulo"
}
{
    "_id" : ObjectId("673e5ac6909e0611d9239c0e"),
    "index" : NumberInt(190),
    "Unnamed: 0" : NumberInt(1330),
    "codigo_ibge" : NumberInt(3117207),
    "nome" : "Conceição das Pedras",
    "latitude" : -22.1576,
    "longitude" : -45.4562,
    "capital" : NumberInt(0),
    "codigo_uf" : NumberInt(31),
    "siafi_id" : NumberInt(4343),
    "ddd" : NumberInt(35),
    "fuso_horario" : "America/Sao_Paulo"
}
{
    "_id" : ObjectId("673e5ac6909e0611d9239c0f"),
    "index" : NumberInt(191),
    "Unnamed: 0" : NumberInt(1331),
    "codigo_ibge" : NumberInt(3117405),
    "nome" : "Conceição de Ipanema",
    "latitude" : -19.9326,
    "longitude" : -41.6908,
    "capital" : NumberInt(0),
    "codigo_uf" : NumberInt(31),
    "siafi_id" : NumberInt(4347),
    "ddd" : NumberInt(33),
    "fuso_horario" : "America/Sao_Paulo"
}
{
    "_id" : ObjectId("673e5ac6909e0611d9239c10"),
    "index" : NumberInt(192),
    "Unnamed: 0" : NumberInt(1340),
    "codigo_ibge" : NumberInt(3117504),
    "nome" : "Conceição do Mato Dentro",
    "latitude" : -19.0344,
    "longitude" : -43.4221,
    "capital" : NumberInt(0),
    "codigo_uf" : NumberInt(31),
    "siafi_id" : NumberInt(4349),
    "ddd" : NumberInt(31),
    "fuso_horario" : "America/Sao_Paulo"
}
{
    "_id" : ObjectId("673e5ac6909e0611d9239c11"),
    "index" : NumberInt(193),
    "Unnamed: 0" : NumberInt(1341),
    "codigo_ibge" : NumberInt(3117603),
    "nome" : "Conceição do Pará",
    "latitude" : -19.7456,
    "longitude" : -44.8945,
    "capital" : NumberInt(0),
    "codigo_uf" : NumberInt(31),
    "siafi_id" : NumberInt(4351),
    "ddd" : NumberInt(37),
    "fuso_horario" : "America/Sao_Paulo"
}
{
    "_id" : ObjectId("673e5ac6909e0611d9239c12"),
    "index" : NumberInt(194),
    "Unnamed: 0" : NumberInt(1342),
    "codigo_ibge" : NumberInt(3117702),
    "nome" : "Conceição do Rio Verde",
    "latitude" : -21.8778,
    "longitude" : -45.087,
    "capital" : NumberInt(0),
    "codigo_uf" : NumberInt(31),
    "siafi_id" : NumberInt(4353),
    "ddd" : NumberInt(35),
    "fuso_horario" : "America/Sao_Paulo"
}
{
    "_id" : ObjectId("673e5ac6909e0611d9239c13"),
    "index" : NumberInt(195),
    "Unnamed: 0" : NumberInt(1344),
    "codigo_ibge" : NumberInt(3117801),
    "nome" : "Conceição dos Ouros",
    "latitude" : -22.4078,
    "longitude" : -45.7996,
    "capital" : NumberInt(0),
    "codigo_uf" : NumberInt(31),
    "siafi_id" : NumberInt(4355),
    "ddd" : NumberInt(35),
    "fuso_horario" : "America/Sao_Paulo"
}
{
    "_id" : ObjectId("673e5ac6909e0611d9239c14"),
    "index" : NumberInt(196),
    "Unnamed: 0" : NumberInt(1355),
    "codigo_ibge" : NumberInt(3117836),
    "nome" : "Cônego Marinho",
    "latitude" : -15.2892,
    "longitude" : -44.4181,
    "capital" : NumberInt(0),
    "codigo_uf" : NumberInt(31),
    "siafi_id" : NumberInt(590),
    "ddd" : NumberInt(38),
    "fuso_horario" : "America/Sao_Paulo"
}
{
    "_id" : ObjectId("673e5ac6909e0611d9239c15"),
    "index" : NumberInt(197),
    "Unnamed: 0" : NumberInt(1356),
    "codigo_ibge" : NumberInt(3117876),
    "nome" : "Confins",
    "latitude" : -19.6282,
    "longitude" : -43.9931,
    "capital" : NumberInt(0),
    "codigo_uf" : NumberInt(31),
    "siafi_id" : NumberInt(592),
    "ddd" : NumberInt(31),
    "fuso_horario" : "America/Sao_Paulo"
}
{
    "_id" : ObjectId("673e5ac6909e0611d9239c16"),
    "index" : NumberInt(198),
    "Unnamed: 0" : NumberInt(1359),
    "codigo_ibge" : NumberInt(3117900),
    "nome" : "Congonhal",
    "latitude" : -22.1488,
    "longitude" : -46.043,
    "capital" : NumberInt(0),
    "codigo_uf" : NumberInt(31),
    "siafi_id" : NumberInt(4357),
    "ddd" : NumberInt(35),
    "fuso_horario" : "America/Sao_Paulo"
}
{
    "_id" : ObjectId("673e5ac6909e0611d9239c17"),
    "index" : NumberInt(199),
    "Unnamed: 0" : NumberInt(1360),
    "codigo_ibge" : NumberInt(3118007),
    "nome" : "Congonhas",
    "latitude" : -20.4958,
    "longitude" : -43.851,
    "capital" : NumberInt(0),
    "codigo_uf" : NumberInt(31),
    "siafi_id" : NumberInt(4359),
    "ddd" : NumberInt(31),
    "fuso_horario" : "America/Sao_Paulo"
}
{
    "_id" : ObjectId("673e5ac6909e0611d9239c18"),
    "index" : NumberInt(200),
    "Unnamed: 0" : NumberInt(1361),
    "codigo_ibge" : NumberInt(3118106),
    "nome" : "Congonhas do Norte",
    "latitude" : -18.8021,
    "longitude" : -43.6767,
    "capital" : NumberInt(0),
    "codigo_uf" : NumberInt(31),
    "siafi_id" : NumberInt(4361),
    "ddd" : NumberInt(31),
    "fuso_horario" : "America/Sao_Paulo"
}
{
    "_id" : ObjectId("673e5ac6909e0611d9239c19"),
    "index" : NumberInt(201),
    "Unnamed: 0" : NumberInt(1363),
    "codigo_ibge" : NumberInt(3118205),
    "nome" : "Conquista",
    "latitude" : -19.9312,
    "longitude" : -47.5492,
    "capital" : NumberInt(0),
    "codigo_uf" : NumberInt(31),
    "siafi_id" : NumberInt(4363),
    "ddd" : NumberInt(34),
    "fuso_horario" : "America/Sao_Paulo"
}
{
    "_id" : ObjectId("673e5ac6909e0611d9239c1a"),
    "index" : NumberInt(202),
    "Unnamed: 0" : NumberInt(1365),
    "codigo_ibge" : NumberInt(3118304),
    "nome" : "Conselheiro Lafaiete",
    "latitude" : -20.6634,
    "longitude" : -43.7846,
    "capital" : NumberInt(0),
    "codigo_uf" : NumberInt(31),
    "siafi_id" : NumberInt(4365),
    "ddd" : NumberInt(31),
    "fuso_horario" : "America/Sao_Paulo"
}
{
    "_id" : ObjectId("673e5ac6909e0611d9239c1b"),
    "index" : NumberInt(203),
    "Unnamed: 0" : NumberInt(1367),
    "codigo_ibge" : NumberInt(3118403),
    "nome" : "Conselheiro Pena",
    "latitude" : -19.1789,
    "longitude" : -41.4736,
    "capital" : NumberInt(0),
    "codigo_uf" : NumberInt(31),
    "siafi_id" : NumberInt(4367),
    "ddd" : NumberInt(33),
    "fuso_horario" : "America/Sao_Paulo"
}
{
    "_id" : ObjectId("673e5ac6909e0611d9239c1c"),
    "index" : NumberInt(204),
    "Unnamed: 0" : NumberInt(1368),
    "codigo_ibge" : NumberInt(3118502),
    "nome" : "Consolação",
    "latitude" : -22.5493,
    "longitude" : -45.9255,
    "capital" : NumberInt(0),
    "codigo_uf" : NumberInt(31),
    "siafi_id" : NumberInt(4369),
    "ddd" : NumberInt(35),
    "fuso_horario" : "America/Sao_Paulo"
}
{
    "_id" : ObjectId("673e5ac6909e0611d9239c1d"),
    "index" : NumberInt(205),
    "Unnamed: 0" : NumberInt(1370),
    "codigo_ibge" : NumberInt(3118601),
    "nome" : "Contagem",
    "latitude" : -19.9321,
    "longitude" : -44.0539,
    "capital" : NumberInt(0),
    "codigo_uf" : NumberInt(31),
    "siafi_id" : NumberInt(4371),
    "ddd" : NumberInt(31),
    "fuso_horario" : "America/Sao_Paulo"
}
{
    "_id" : ObjectId("673e5ac6909e0611d9239c1e"),
    "index" : NumberInt(206),
    "Unnamed: 0" : NumberInt(1373),
    "codigo_ibge" : NumberInt(3118700),
    "nome" : "Coqueiral",
    "latitude" : -21.1858,
    "longitude" : -45.4366,
    "capital" : NumberInt(0),
    "codigo_uf" : NumberInt(31),
    "siafi_id" : NumberInt(4373),
    "ddd" : NumberInt(35),
    "fuso_horario" : "America/Sao_Paulo"
}
{
    "_id" : ObjectId("673e5ac6909e0611d9239c1f"),
    "index" : NumberInt(207),
    "Unnamed: 0" : NumberInt(1377),
    "codigo_ibge" : NumberInt(3118809),
    "nome" : "Coração de Jesus",
    "latitude" : -16.6841,
    "longitude" : -44.3635,
    "capital" : NumberInt(0),
    "codigo_uf" : NumberInt(31),
    "siafi_id" : NumberInt(4375),
    "ddd" : NumberInt(38),
    "fuso_horario" : "America/Sao_Paulo"
}
{
    "_id" : ObjectId("673e5ac6909e0611d9239c20"),
    "index" : NumberInt(208),
    "Unnamed: 0" : NumberInt(1384),
    "codigo_ibge" : NumberInt(3118908),
    "nome" : "Cordisburgo",
    "latitude" : -19.1224,
    "longitude" : -44.3224,
    "capital" : NumberInt(0),
    "codigo_uf" : NumberInt(31),
    "siafi_id" : NumberInt(4377),
    "ddd" : NumberInt(31),
    "fuso_horario" : "America/Sao_Paulo"
}
{
    "_id" : ObjectId("673e5ac6909e0611d9239c21"),
    "index" : NumberInt(209),
    "Unnamed: 0" : NumberInt(1385),
    "codigo_ibge" : NumberInt(3119005),
    "nome" : "Cordislândia",
    "latitude" : -21.7891,
    "longitude" : -45.6999,
    "capital" : NumberInt(0),
    "codigo_uf" : NumberInt(31),
    "siafi_id" : NumberInt(4379),
    "ddd" : NumberInt(35),
    "fuso_horario" : "America/Sao_Paulo"
}
{
    "_id" : ObjectId("673e5ac6909e0611d9239c22"),
    "index" : NumberInt(210),
    "Unnamed: 0" : NumberInt(1390),
    "codigo_ibge" : NumberInt(3119104),
    "nome" : "Corinto",
    "latitude" : -18.369,
    "longitude" : -44.4542,
    "capital" : NumberInt(0),
    "codigo_uf" : NumberInt(31),
    "siafi_id" : NumberInt(4381),
    "ddd" : NumberInt(38),
    "fuso_horario" : "America/Sao_Paulo"
}
{
    "_id" : ObjectId("673e5ac6909e0611d9239c23"),
    "index" : NumberInt(211),
    "Unnamed: 0" : NumberInt(1392),
    "codigo_ibge" : NumberInt(3119203),
    "nome" : "Coroaci",
    "latitude" : -18.6156,
    "longitude" : -42.2791,
    "capital" : NumberInt(0),
    "codigo_uf" : NumberInt(31),
    "siafi_id" : NumberInt(4383),
    "ddd" : NumberInt(33),
    "fuso_horario" : "America/Sao_Paulo"
}
{
    "_id" : ObjectId("673e5ac6909e0611d9239c24"),
    "index" : NumberInt(212),
    "Unnamed: 0" : NumberInt(1395),
    "codigo_ibge" : NumberInt(3119302),
    "nome" : "Coromandel",
    "latitude" : -18.4734,
    "longitude" : -47.1933,
    "capital" : NumberInt(0),
    "codigo_uf" : NumberInt(31),
    "siafi_id" : NumberInt(4385),
    "ddd" : NumberInt(34),
    "fuso_horario" : "America/Sao_Paulo"
}
{
    "_id" : ObjectId("673e5ac6909e0611d9239c25"),
    "index" : NumberInt(213),
    "Unnamed: 0" : NumberInt(1400),
    "codigo_ibge" : NumberInt(3119401),
    "nome" : "Coronel Fabriciano",
    "latitude" : -19.5179,
    "longitude" : -42.6276,
    "capital" : NumberInt(0),
    "codigo_uf" : NumberInt(31),
    "siafi_id" : NumberInt(4387),
    "ddd" : NumberInt(31),
    "fuso_horario" : "America/Sao_Paulo"
}
{
    "_id" : ObjectId("673e5ac6909e0611d9239c26"),
    "index" : NumberInt(214),
    "Unnamed: 0" : NumberInt(1407),
    "codigo_ibge" : NumberInt(3119500),
    "nome" : "Coronel Murta",
    "latitude" : -16.6148,
    "longitude" : -42.184,
    "capital" : NumberInt(0),
    "codigo_uf" : NumberInt(31),
    "siafi_id" : NumberInt(4389),
    "ddd" : NumberInt(33),
    "fuso_horario" : "America/Sao_Paulo"
}
{
    "_id" : ObjectId("673e5ac6909e0611d9239c27"),
    "index" : NumberInt(215),
    "Unnamed: 0" : NumberInt(1408),
    "codigo_ibge" : NumberInt(3119609),
    "nome" : "Coronel Pacheco",
    "latitude" : -21.5898,
    "longitude" : -43.256,
    "capital" : NumberInt(0),
    "codigo_uf" : NumberInt(31),
    "siafi_id" : NumberInt(4391),
    "ddd" : NumberInt(32),
    "fuso_horario" : "America/Sao_Paulo"
}
{
    "_id" : ObjectId("673e5ac6909e0611d9239c28"),
    "index" : NumberInt(216),
    "Unnamed: 0" : NumberInt(1412),
    "codigo_ibge" : NumberInt(3119708),
    "nome" : "Coronel Xavier Chaves",
    "latitude" : -21.0277,
    "longitude" : -44.2206,
    "capital" : NumberInt(0),
    "codigo_uf" : NumberInt(31),
    "siafi_id" : NumberInt(4393),
    "ddd" : NumberInt(32),
    "fuso_horario" : "America/Sao_Paulo"
}
{
    "_id" : ObjectId("673e5ac6909e0611d9239c29"),
    "index" : NumberInt(217),
    "Unnamed: 0" : NumberInt(1413),
    "codigo_ibge" : NumberInt(3119807),
    "nome" : "Córrego Danta",
    "latitude" : -19.8198,
    "longitude" : -45.9032,
    "capital" : NumberInt(0),
    "codigo_uf" : NumberInt(31),
    "siafi_id" : NumberInt(4395),
    "ddd" : NumberInt(37),
    "fuso_horario" : "America/Sao_Paulo"
}
{
    "_id" : ObjectId("673e5ac6909e0611d9239c2a"),
    "index" : NumberInt(218),
    "Unnamed: 0" : NumberInt(1414),
    "codigo_ibge" : NumberInt(3119906),
    "nome" : "Córrego do Bom Jesus",
    "latitude" : -22.6269,
    "longitude" : -46.0241,
    "capital" : NumberInt(0),
    "codigo_uf" : NumberInt(31),
    "siafi_id" : NumberInt(4397),
    "ddd" : NumberInt(35),
    "fuso_horario" : "America/Sao_Paulo"
}
{
    "_id" : ObjectId("673e5ac6909e0611d9239c2b"),
    "index" : NumberInt(219),
    "Unnamed: 0" : NumberInt(1416),
    "codigo_ibge" : NumberInt(3119955),
    "nome" : "Córrego Fundo",
    "latitude" : -20.4474,
    "longitude" : -45.5617,
    "capital" : NumberInt(0),
    "codigo_uf" : NumberInt(31),
    "siafi_id" : NumberInt(594),
    "ddd" : NumberInt(37),
    "fuso_horario" : "America/Sao_Paulo"
}
{
    "_id" : ObjectId("673e5ac6909e0611d9239c2c"),
    "index" : NumberInt(220),
    "Unnamed: 0" : NumberInt(1417),
    "codigo_ibge" : NumberInt(3120003),
    "nome" : "Córrego Novo",
    "latitude" : -19.8361,
    "longitude" : -42.3988,
    "capital" : NumberInt(0),
    "codigo_uf" : NumberInt(31),
    "siafi_id" : NumberInt(4399),
    "ddd" : NumberInt(33),
    "fuso_horario" : "America/Sao_Paulo"
}
{
    "_id" : ObjectId("673e5ac6909e0611d9239c2d"),
    "index" : NumberInt(221),
    "Unnamed: 0" : NumberInt(1439),
    "codigo_ibge" : NumberInt(3120102),
    "nome" : "Couto de Magalhães de Minas",
    "latitude" : -18.0727,
    "longitude" : -43.4648,
    "capital" : NumberInt(0),
    "codigo_uf" : NumberInt(31),
    "siafi_id" : NumberInt(4401),
    "ddd" : NumberInt(38),
    "fuso_horario" : "America/Sao_Paulo"
}
{
    "_id" : ObjectId("673e5ac6909e0611d9239c2e"),
    "index" : NumberInt(222),
    "Unnamed: 0" : NumberInt(1450),
    "codigo_ibge" : NumberInt(3120151),
    "nome" : "Crisólita",
    "latitude" : -17.2381,
    "longitude" : -40.9184,
    "capital" : NumberInt(0),
    "codigo_uf" : NumberInt(31),
    "siafi_id" : NumberInt(596),
    "ddd" : NumberInt(33),
    "fuso_horario" : "America/Sao_Paulo"
}
{
    "_id" : ObjectId("673e5ac6909e0611d9239c2f"),
    "index" : NumberInt(223),
    "Unnamed: 0" : NumberInt(1453),
    "codigo_ibge" : NumberInt(3120201),
    "nome" : "Cristais",
    "latitude" : -20.8733,
    "longitude" : -45.5167,
    "capital" : NumberInt(0),
    "codigo_uf" : NumberInt(31),
    "siafi_id" : NumberInt(4403),
    "ddd" : NumberInt(35),
    "fuso_horario" : "America/Sao_Paulo"
}
{
    "_id" : ObjectId("673e5ac6909e0611d9239c30"),
    "index" : NumberInt(224),
    "Unnamed: 0" : NumberInt(1459),
    "codigo_ibge" : NumberInt(3120300),
    "nome" : "Cristália",
    "latitude" : -16.716,
    "longitude" : -42.8571,
    "capital" : NumberInt(0),
    "codigo_uf" : NumberInt(31),
    "siafi_id" : NumberInt(4405),
    "ddd" : NumberInt(38),
    "fuso_horario" : "America/Sao_Paulo"
}
{
    "_id" : ObjectId("673e5ac6909e0611d9239c31"),
    "index" : NumberInt(225),
    "Unnamed: 0" : NumberInt(1461),
    "codigo_ibge" : NumberInt(3120409),
    "nome" : "Cristiano Otoni",
    "latitude" : -20.8324,
    "longitude" : -43.8166,
    "capital" : NumberInt(0),
    "codigo_uf" : NumberInt(31),
    "siafi_id" : NumberInt(4407),
    "ddd" : NumberInt(31),
    "fuso_horario" : "America/Sao_Paulo"
}
{
    "_id" : ObjectId("673e5ac6909e0611d9239c32"),
    "index" : NumberInt(226),
    "Unnamed: 0" : NumberInt(1463),
    "codigo_ibge" : NumberInt(3120508),
    "nome" : "Cristina",
    "latitude" : -22.208,
    "longitude" : -45.2673,
    "capital" : NumberInt(0),
    "codigo_uf" : NumberInt(31),
    "siafi_id" : NumberInt(4409),
    "ddd" : NumberInt(35),
    "fuso_horario" : "America/Sao_Paulo"
}
{
    "_id" : ObjectId("673e5ac6909e0611d9239c33"),
    "index" : NumberInt(227),
    "Unnamed: 0" : NumberInt(1471),
    "codigo_ibge" : NumberInt(3120607),
    "nome" : "Crucilândia",
    "latitude" : -20.3923,
    "longitude" : -44.3334,
    "capital" : NumberInt(0),
    "codigo_uf" : NumberInt(31),
    "siafi_id" : NumberInt(4411),
    "ddd" : NumberInt(31),
    "fuso_horario" : "America/Sao_Paulo"
}
{
    "_id" : ObjectId("673e5ac6909e0611d9239c34"),
    "index" : NumberInt(228),
    "Unnamed: 0" : NumberInt(1480),
    "codigo_ibge" : NumberInt(3120706),
    "nome" : "Cruzeiro da Fortaleza",
    "latitude" : -18.944,
    "longitude" : -46.6669,
    "capital" : NumberInt(0),
    "codigo_uf" : NumberInt(31),
    "siafi_id" : NumberInt(4413),
    "ddd" : NumberInt(34),
    "fuso_horario" : "America/Sao_Paulo"
}
{
    "_id" : ObjectId("673e5ac6909e0611d9239c35"),
    "index" : NumberInt(229),
    "Unnamed: 0" : NumberInt(1487),
    "codigo_ibge" : NumberInt(3120805),
    "nome" : "Cruzília",
    "latitude" : -21.84,
    "longitude" : -44.8067,
    "capital" : NumberInt(0),
    "codigo_uf" : NumberInt(31),
    "siafi_id" : NumberInt(4415),
    "ddd" : NumberInt(35),
    "fuso_horario" : "America/Sao_Paulo"
}
{
    "_id" : ObjectId("673e5ac6909e0611d9239c36"),
    "index" : NumberInt(230),
    "Unnamed: 0" : NumberInt(1503),
    "codigo_ibge" : NumberInt(3120839),
    "nome" : "Cuparaque",
    "latitude" : -18.9648,
    "longitude" : -41.0986,
    "capital" : NumberInt(0),
    "codigo_uf" : NumberInt(31),
    "siafi_id" : NumberInt(598),
    "ddd" : NumberInt(33),
    "fuso_horario" : "America/Sao_Paulo"
}
{
    "_id" : ObjectId("673e5ac6909e0611d9239c37"),
    "index" : NumberInt(231),
    "Unnamed: 0" : NumberInt(1514),
    "codigo_ibge" : NumberInt(3120870),
    "nome" : "Curral de Dentro",
    "latitude" : -15.9327,
    "longitude" : -41.8557,
    "capital" : NumberInt(0),
    "codigo_uf" : NumberInt(31),
    "siafi_id" : NumberInt(600),
    "ddd" : NumberInt(33),
    "fuso_horario" : "America/Sao_Paulo"
}
{
    "_id" : ObjectId("673e5ac6909e0611d9239c38"),
    "index" : NumberInt(232),
    "Unnamed: 0" : NumberInt(1523),
    "codigo_ibge" : NumberInt(3120904),
    "nome" : "Curvelo",
    "latitude" : -18.7527,
    "longitude" : -44.4303,
    "capital" : NumberInt(0),
    "codigo_uf" : NumberInt(31),
    "siafi_id" : NumberInt(4417),
    "ddd" : NumberInt(38),
    "fuso_horario" : "America/Sao_Paulo"
}
{
    "_id" : ObjectId("673e5ac6909e0611d9239c39"),
    "index" : NumberInt(233),
    "Unnamed: 0" : NumberInt(1531),
    "codigo_ibge" : NumberInt(3121001),
    "nome" : "Datas",
    "latitude" : -18.4478,
    "longitude" : -43.6591,
    "capital" : NumberInt(0),
    "codigo_uf" : NumberInt(31),
    "siafi_id" : NumberInt(4419),
    "ddd" : NumberInt(38),
    "fuso_horario" : "America/Sao_Paulo"
}
{
    "_id" : ObjectId("673e5ac6909e0611d9239c3a"),
    "index" : NumberInt(234),
    "Unnamed: 0" : NumberInt(1535),
    "codigo_ibge" : NumberInt(3121100),
    "nome" : "Delfim Moreira",
    "latitude" : -22.5036,
    "longitude" : -45.2792,
    "capital" : NumberInt(0),
    "codigo_uf" : NumberInt(31),
    "siafi_id" : NumberInt(4421),
    "ddd" : NumberInt(35),
    "fuso_horario" : "America/Sao_Paulo"
}
{
    "_id" : ObjectId("673e5ac6909e0611d9239c3b"),
    "index" : NumberInt(235),
    "Unnamed: 0" : NumberInt(1536),
    "codigo_ibge" : NumberInt(3121209),
    "nome" : "Delfinópolis",
    "latitude" : -20.3468,
    "longitude" : -46.8456,
    "capital" : NumberInt(0),
    "codigo_uf" : NumberInt(31),
    "siafi_id" : NumberInt(4423),
    "ddd" : NumberInt(35),
    "fuso_horario" : "America/Sao_Paulo"
}
{
    "_id" : ObjectId("673e5ac6909e0611d9239c3c"),
    "index" : NumberInt(236),
    "Unnamed: 0" : NumberInt(1538),
    "codigo_ibge" : NumberInt(3121258),
    "nome" : "Delta",
    "latitude" : -19.9721,
    "longitude" : -47.7841,
    "capital" : NumberInt(0),
    "codigo_uf" : NumberInt(31),
    "siafi_id" : NumberInt(602),
    "ddd" : NumberInt(34),
    "fuso_horario" : "America/Sao_Paulo"
}
{
    "_id" : ObjectId("673e5ac6909e0611d9239c3d"),
    "index" : NumberInt(237),
    "Unnamed: 0" : NumberInt(1546),
    "codigo_ibge" : NumberInt(3121308),
    "nome" : "Descoberto",
    "latitude" : -21.46,
    "longitude" : -42.9618,
    "capital" : NumberInt(0),
    "codigo_uf" : NumberInt(31),
    "siafi_id" : NumberInt(4425),
    "ddd" : NumberInt(32),
    "fuso_horario" : "America/Sao_Paulo"
}
