{
    "_id" : ObjectId("673e5ac6909e0611d9239ef4"),
    "index" : NumberInt(0),
    "Unnamed: 0" : NumberInt(25),
    "codigo_ibge" : NumberInt(5100102),
    "nome" : "Acorizal",
    "latitude" : -15.194,
    "longitude" : -56.3632,
    "capital" : NumberInt(0),
    "codigo_uf" : NumberInt(51),
    "siafi_id" : NumberInt(9001),
    "ddd" : NumberInt(65),
    "fuso_horario" : "America/Porto_Velho"
}
{
    "_id" : ObjectId("673e5ac6909e0611d9239ef5"),
    "index" : NumberInt(1),
    "Unnamed: 0" : NumberInt(47),
    "codigo_ibge" : NumberInt(5100201),
    "nome" : "Água Boa",
    "latitude" : -14.051,
    "longitude" : -52.1601,
    "capital" : NumberInt(0),
    "codigo_uf" : NumberInt(51),
    "siafi_id" : NumberInt(9191),
    "ddd" : NumberInt(66),
    "fuso_horario" : "America/Porto_Velho"
}
{
    "_id" : ObjectId("673e5ac6909e0611d9239ef6"),
    "index" : NumberInt(2),
    "Unnamed: 0" : NumberInt(130),
    "codigo_ibge" : NumberInt(5100250),
    "nome" : "Alta Floresta",
    "latitude" : -9.86674,
    "longitude" : -56.0867,
    "capital" : NumberInt(0),
    "codigo_uf" : NumberInt(51),
    "siafi_id" : NumberInt(8987),
    "ddd" : NumberInt(66),
    "fuso_horario" : "America/Porto_Velho"
}
{
    "_id" : ObjectId("673e5ac6909e0611d9239ef7"),
    "index" : NumberInt(3),
    "Unnamed: 0" : NumberInt(146),
    "codigo_ibge" : NumberInt(5100300),
    "nome" : "Alto Araguaia",
    "latitude" : -17.3153,
    "longitude" : -53.2181,
    "capital" : NumberInt(0),
    "codigo_uf" : NumberInt(51),
    "siafi_id" : NumberInt(9005),
    "ddd" : NumberInt(66),
    "fuso_horario" : "America/Porto_Velho"
}
{
    "_id" : ObjectId("673e5ac6909e0611d9239ef8"),
    "index" : NumberInt(4),
    "Unnamed: 0" : NumberInt(148),
    "codigo_ibge" : NumberInt(5100359),
    "nome" : "Alto Boa Vista",
    "latitude" : -11.6732,
    "longitude" : -51.3883,
    "capital" : NumberInt(0),
    "codigo_uf" : NumberInt(51),
    "siafi_id" : NumberInt(127),
    "ddd" : NumberInt(66),
    "fuso_horario" : "America/Porto_Velho"
}
{
    "_id" : ObjectId("673e5ac6909e0611d9239ef9"),
    "index" : NumberInt(5),
    "Unnamed: 0" : NumberInt(152),
    "codigo_ibge" : NumberInt(5100409),
    "nome" : "Alto Garças",
    "latitude" : -16.9462,
    "longitude" : -53.5272,
    "capital" : NumberInt(0),
    "codigo_uf" : NumberInt(51),
    "siafi_id" : NumberInt(9007),
    "ddd" : NumberInt(66),
    "fuso_horario" : "America/Porto_Velho"
}
{
    "_id" : ObjectId("673e5ac6909e0611d9239efa"),
    "index" : NumberInt(6),
    "Unnamed: 0" : NumberInt(156),
    "codigo_ibge" : NumberInt(5100508),
    "nome" : "Alto Paraguai",
    "latitude" : -14.5137,
    "longitude" : -56.4776,
    "capital" : NumberInt(0),
    "codigo_uf" : NumberInt(51),
    "siafi_id" : NumberInt(9009),
    "ddd" : NumberInt(65),
    "fuso_horario" : "America/Porto_Velho"
}
{
    "_id" : ObjectId("673e5ac6909e0611d9239efb"),
    "index" : NumberInt(7),
    "Unnamed: 0" : NumberInt(166),
    "codigo_ibge" : NumberInt(5100607),
    "nome" : "Alto Taquari",
    "latitude" : -17.8241,
    "longitude" : -53.2792,
    "capital" : NumberInt(0),
    "codigo_uf" : NumberInt(51),
    "siafi_id" : NumberInt(9911),
    "ddd" : NumberInt(66),
    "fuso_horario" : "America/Porto_Velho"
}
{
    "_id" : ObjectId("673e5ac6909e0611d9239efc"),
    "index" : NumberInt(8),
    "Unnamed: 0" : NumberInt(277),
    "codigo_ibge" : NumberInt(5100805),
    "nome" : "Apiacás",
    "latitude" : -9.53981,
    "longitude" : -57.4587,
    "capital" : NumberInt(0),
    "codigo_uf" : NumberInt(51),
    "siafi_id" : NumberInt(9773),
    "ddd" : NumberInt(66),
    "fuso_horario" : "America/Porto_Velho"
}
{
    "_id" : ObjectId("673e5ac6909e0611d9239efd"),
    "index" : NumberInt(9),
    "Unnamed: 0" : NumberInt(313),
    "codigo_ibge" : NumberInt(5101001),
    "nome" : "Araguaiana",
    "latitude" : -15.7291,
    "longitude" : -51.8341,
    "capital" : NumberInt(0),
    "codigo_uf" : NumberInt(51),
    "siafi_id" : NumberInt(9869),
    "ddd" : NumberInt(66),
    "fuso_horario" : "America/Porto_Velho"
}
{
    "_id" : ObjectId("673e5ac6909e0611d9239efe"),
    "index" : NumberInt(10),
    "Unnamed: 0" : NumberInt(315),
    "codigo_ibge" : NumberInt(5101209),
    "nome" : "Araguainha",
    "latitude" : -16.857,
    "longitude" : -53.0318,
    "capital" : NumberInt(0),
    "codigo_uf" : NumberInt(51),
    "siafi_id" : NumberInt(9023),
    "ddd" : NumberInt(66),
    "fuso_horario" : "America/Porto_Velho"
}
{
    "_id" : ObjectId("673e5ac6909e0611d9239eff"),
    "index" : NumberInt(11),
    "Unnamed: 0" : NumberInt(338),
    "codigo_ibge" : NumberInt(5101258),
    "nome" : "Araputanga",
    "latitude" : -15.4641,
    "longitude" : -58.3425,
    "capital" : NumberInt(0),
    "codigo_uf" : NumberInt(51),
    "siafi_id" : NumberInt(8989),
    "ddd" : NumberInt(65),
    "fuso_horario" : "America/Porto_Velho"
}
{
    "_id" : ObjectId("673e5ac6909e0611d9239f00"),
    "index" : NumberInt(12),
    "Unnamed: 0" : NumberInt(374),
    "codigo_ibge" : NumberInt(5101308),
    "nome" : "Arenápolis",
    "latitude" : -14.4472,
    "longitude" : -56.8437,
    "capital" : NumberInt(0),
    "codigo_uf" : NumberInt(51),
    "siafi_id" : NumberInt(9025),
    "ddd" : NumberInt(65),
    "fuso_horario" : "America/Porto_Velho"
}
{
    "_id" : ObjectId("673e5ac6909e0611d9239f01"),
    "index" : NumberInt(13),
    "Unnamed: 0" : NumberInt(380),
    "codigo_ibge" : NumberInt(5101407),
    "nome" : "Aripuanã",
    "latitude" : -10.1723,
    "longitude" : -59.4568,
    "capital" : NumberInt(0),
    "codigo_uf" : NumberInt(51),
    "siafi_id" : NumberInt(9027),
    "ddd" : NumberInt(66),
    "fuso_horario" : "America/Porto_Velho"
}
{
    "_id" : ObjectId("673e5ac6909e0611d9239f02"),
    "index" : NumberInt(14),
    "Unnamed: 0" : NumberInt(492),
    "codigo_ibge" : NumberInt(5101605),
    "nome" : "Barão de Melgaço",
    "latitude" : -16.2067,
    "longitude" : -55.9623,
    "capital" : NumberInt(0),
    "codigo_uf" : NumberInt(51),
    "siafi_id" : NumberInt(9031),
    "ddd" : NumberInt(65),
    "fuso_horario" : "America/Porto_Velho"
}
{
    "_id" : ObjectId("673e5ac6909e0611d9239f03"),
    "index" : NumberInt(15),
    "Unnamed: 0" : NumberInt(517),
    "codigo_ibge" : NumberInt(5101704),
    "nome" : "Barra do Bugres",
    "latitude" : -15.0702,
    "longitude" : -57.1878,
    "capital" : NumberInt(0),
    "codigo_uf" : NumberInt(51),
    "siafi_id" : NumberInt(9033),
    "ddd" : NumberInt(65),
    "fuso_horario" : "America/Porto_Velho"
}
{
    "_id" : ObjectId("673e5ac6909e0611d9239f04"),
    "index" : NumberInt(16),
    "Unnamed: 0" : NumberInt(521),
    "codigo_ibge" : NumberInt(5101803),
    "nome" : "Barra do Garças",
    "latitude" : -15.8804,
    "longitude" : -52.264,
    "capital" : NumberInt(0),
    "codigo_uf" : NumberInt(51),
    "siafi_id" : NumberInt(9035),
    "ddd" : NumberInt(66),
    "fuso_horario" : "America/Porto_Velho"
}
{
    "_id" : ObjectId("673e5ac6909e0611d9239f05"),
    "index" : NumberInt(17),
    "Unnamed: 0" : NumberInt(685),
    "codigo_ibge" : NumberInt(5101852),
    "nome" : "Bom Jesus do Araguaia",
    "latitude" : -12.1706,
    "longitude" : -51.5032,
    "capital" : NumberInt(0),
    "codigo_uf" : NumberInt(51),
    "siafi_id" : NumberInt(1078),
    "ddd" : NumberInt(66),
    "fuso_horario" : "America/Porto_Velho"
}
{
    "_id" : ObjectId("673e5ac6909e0611d9239f06"),
    "index" : NumberInt(18),
    "Unnamed: 0" : NumberInt(757),
    "codigo_ibge" : NumberInt(5101902),
    "nome" : "Brasnorte",
    "latitude" : -12.1474,
    "longitude" : -57.9833,
    "capital" : NumberInt(0),
    "codigo_uf" : NumberInt(51),
    "siafi_id" : NumberInt(9873),
    "ddd" : NumberInt(66),
    "fuso_horario" : "America/Porto_Velho"
}
{
    "_id" : ObjectId("673e5ac6909e0611d9239f07"),
    "index" : NumberInt(19),
    "Unnamed: 0" : NumberInt(838),
    "codigo_ibge" : NumberInt(5102504),
    "nome" : "Cáceres",
    "latitude" : -16.0764,
    "longitude" : -57.6818,
    "capital" : NumberInt(0),
    "codigo_uf" : NumberInt(51),
    "siafi_id" : NumberInt(9047),
    "ddd" : NumberInt(65),
    "fuso_horario" : "America/Porto_Velho"
}
{
    "_id" : ObjectId("673e5ac6909e0611d9239f08"),
    "index" : NumberInt(20),
    "Unnamed: 0" : NumberInt(950),
    "codigo_ibge" : NumberInt(5102603),
    "nome" : "Campinápolis",
    "latitude" : -14.5162,
    "longitude" : -52.893,
    "capital" : NumberInt(0),
    "codigo_uf" : NumberInt(51),
    "siafi_id" : NumberInt(9863),
    "ddd" : NumberInt(66),
    "fuso_horario" : "America/Porto_Velho"
}
{
    "_id" : ObjectId("673e5ac6909e0611d9239f09"),
    "index" : NumberInt(21),
    "Unnamed: 0" : NumberInt(983),
    "codigo_ibge" : NumberInt(5102637),
    "nome" : "Campo Novo do Parecis",
    "latitude" : -13.6587,
    "longitude" : -57.8907,
    "capital" : NumberInt(0),
    "codigo_uf" : NumberInt(51),
    "siafi_id" : NumberInt(9777),
    "ddd" : NumberInt(65),
    "fuso_horario" : "America/Porto_Velho"
}
{
    "_id" : ObjectId("673e5ac6909e0611d9239f0a"),
    "index" : NumberInt(22),
    "Unnamed: 0" : NumberInt(985),
    "codigo_ibge" : NumberInt(5102678),
    "nome" : "Campo Verde",
    "latitude" : -15.545,
    "longitude" : -55.1626,
    "capital" : NumberInt(0),
    "codigo_uf" : NumberInt(51),
    "siafi_id" : NumberInt(9779),
    "ddd" : NumberInt(66),
    "fuso_horario" : "America/Porto_Velho"
}
{
    "_id" : ObjectId("673e5ac6909e0611d9239f0b"),
    "index" : NumberInt(23),
    "Unnamed: 0" : NumberInt(989),
    "codigo_ibge" : NumberInt(5102686),
    "nome" : "Campos de Júlio",
    "latitude" : -13.7242,
    "longitude" : -59.2858,
    "capital" : NumberInt(0),
    "codigo_uf" : NumberInt(51),
    "siafi_id" : NumberInt(1032),
    "ddd" : NumberInt(65),
    "fuso_horario" : "America/Porto_Velho"
}
{
    "_id" : ObjectId("673e5ac6909e0611d9239f0c"),
    "index" : NumberInt(24),
    "Unnamed: 0" : NumberInt(1002),
    "codigo_ibge" : NumberInt(5102694),
    "nome" : "Canabrava do Norte",
    "latitude" : -11.0556,
    "longitude" : -51.8209,
    "capital" : NumberInt(0),
    "codigo_uf" : NumberInt(51),
    "siafi_id" : NumberInt(129),
    "ddd" : NumberInt(66),
    "fuso_horario" : "America/Porto_Velho"
}
{
    "_id" : ObjectId("673e5ac6909e0611d9239f0d"),
    "index" : NumberInt(25),
    "Unnamed: 0" : NumberInt(1008),
    "codigo_ibge" : NumberInt(5102702),
    "nome" : "Canarana",
    "latitude" : -13.5515,
    "longitude" : -52.2705,
    "capital" : NumberInt(0),
    "codigo_uf" : NumberInt(51),
    "siafi_id" : NumberInt(9193),
    "ddd" : NumberInt(66),
    "fuso_horario" : "America/Porto_Velho"
}
{
    "_id" : ObjectId("673e5ac6909e0611d9239f0e"),
    "index" : NumberInt(26),
    "Unnamed: 0" : NumberInt(1121),
    "codigo_ibge" : NumberInt(5102793),
    "nome" : "Carlinda",
    "latitude" : -9.94912,
    "longitude" : -55.8417,
    "capital" : NumberInt(0),
    "codigo_uf" : NumberInt(51),
    "siafi_id" : NumberInt(1034),
    "ddd" : NumberInt(66),
    "fuso_horario" : "America/Porto_Velho"
}
{
    "_id" : ObjectId("673e5ac6909e0611d9239f0f"),
    "index" : NumberInt(27),
    "Unnamed: 0" : NumberInt(1171),
    "codigo_ibge" : NumberInt(5102850),
    "nome" : "Castanheira",
    "latitude" : -11.1251,
    "longitude" : -58.6081,
    "capital" : NumberInt(0),
    "codigo_uf" : NumberInt(51),
    "siafi_id" : NumberInt(9783),
    "ddd" : NumberInt(66),
    "fuso_horario" : "America/Porto_Velho"
}
{
    "_id" : ObjectId("673e5ac6909e0611d9239f10"),
    "index" : NumberInt(28),
    "Unnamed: 0" : NumberInt(1248),
    "codigo_ibge" : NumberInt(5103007),
    "nome" : "Chapada dos Guimarães",
    "latitude" : -15.4643,
    "longitude" : -55.7499,
    "capital" : NumberInt(0),
    "codigo_uf" : NumberInt(51),
    "siafi_id" : NumberInt(9059),
    "ddd" : NumberInt(65),
    "fuso_horario" : "America/Porto_Velho"
}
{
    "_id" : ObjectId("673e5ac6909e0611d9239f11"),
    "index" : NumberInt(29),
    "Unnamed: 0" : NumberInt(1281),
    "codigo_ibge" : NumberInt(5103056),
    "nome" : "Cláudia",
    "latitude" : -11.5075,
    "longitude" : -54.8835,
    "capital" : NumberInt(0),
    "codigo_uf" : NumberInt(51),
    "siafi_id" : NumberInt(9789),
    "ddd" : NumberInt(66),
    "fuso_horario" : "America/Porto_Velho"
}
{
    "_id" : ObjectId("673e5ac6909e0611d9239f12"),
    "index" : NumberInt(30),
    "Unnamed: 0" : NumberInt(1291),
    "codigo_ibge" : NumberInt(5103106),
    "nome" : "Cocalinho",
    "latitude" : -14.3903,
    "longitude" : -51.0001,
    "capital" : NumberInt(0),
    "codigo_uf" : NumberInt(51),
    "siafi_id" : NumberInt(9865),
    "ddd" : NumberInt(66),
    "fuso_horario" : "America/Porto_Velho"
}
{
    "_id" : ObjectId("673e5ac6909e0611d9239f13"),
    "index" : NumberInt(31),
    "Unnamed: 0" : NumberInt(1302),
    "codigo_ibge" : NumberInt(5103205),
    "nome" : "Colíder",
    "latitude" : -10.8135,
    "longitude" : -55.461,
    "capital" : NumberInt(0),
    "codigo_uf" : NumberInt(51),
    "siafi_id" : NumberInt(8979),
    "ddd" : NumberInt(66),
    "fuso_horario" : "America/Porto_Velho"
}
{
    "_id" : ObjectId("673e5ac6909e0611d9239f14"),
    "index" : NumberInt(32),
    "Unnamed: 0" : NumberInt(1309),
    "codigo_ibge" : NumberInt(5103254),
    "nome" : "Colniza",
    "latitude" : -9.46121,
    "longitude" : -59.2252,
    "capital" : NumberInt(0),
    "codigo_uf" : NumberInt(51),
    "siafi_id" : NumberInt(1080),
    "ddd" : NumberInt(66),
    "fuso_horario" : "America/Porto_Velho"
}
{
    "_id" : ObjectId("673e5ac6909e0611d9239f15"),
    "index" : NumberInt(33),
    "Unnamed: 0" : NumberInt(1323),
    "codigo_ibge" : NumberInt(5103304),
    "nome" : "Comodoro",
    "latitude" : -13.6614,
    "longitude" : -59.7848,
    "capital" : NumberInt(0),
    "codigo_uf" : NumberInt(51),
    "siafi_id" : NumberInt(9883),
    "ddd" : NumberInt(65),
    "fuso_horario" : "America/Porto_Velho"
}
{
    "_id" : ObjectId("673e5ac6909e0611d9239f16"),
    "index" : NumberInt(34),
    "Unnamed: 0" : NumberInt(1357),
    "codigo_ibge" : NumberInt(5103353),
    "nome" : "Confresa",
    "latitude" : -10.6437,
    "longitude" : -51.5699,
    "capital" : NumberInt(0),
    "codigo_uf" : NumberInt(51),
    "siafi_id" : NumberInt(131),
    "ddd" : NumberInt(66),
    "fuso_horario" : "America/Porto_Velho"
}
{
    "_id" : ObjectId("673e5ac6909e0611d9239f17"),
    "index" : NumberInt(35),
    "Unnamed: 0" : NumberInt(1364),
    "codigo_ibge" : NumberInt(5103361),
    "nome" : "Conquista D'Oeste",
    "latitude" : -14.5381,
    "longitude" : -59.5444,
    "capital" : NumberInt(0),
    "codigo_uf" : NumberInt(51),
    "siafi_id" : NumberInt(1082),
    "ddd" : NumberInt(65),
    "fuso_horario" : "America/Porto_Velho"
}
{
    "_id" : ObjectId("673e5ac6909e0611d9239f18"),
    "index" : NumberInt(36),
    "Unnamed: 0" : NumberInt(1438),
    "codigo_ibge" : NumberInt(5103379),
    "nome" : "Cotriguaçu",
    "latitude" : -9.85656,
    "longitude" : -58.4192,
    "capital" : NumberInt(0),
    "codigo_uf" : NumberInt(51),
    "siafi_id" : NumberInt(89),
    "ddd" : NumberInt(66),
    "fuso_horario" : "America/Porto_Velho"
}
{
    "_id" : ObjectId("673e5ac6909e0611d9239f19"),
    "index" : NumberInt(37),
    "Unnamed: 0" : NumberInt(1491),
    "codigo_ibge" : NumberInt(5103403),
    "nome" : "Cuiabá",
    "latitude" : -15.601,
    "longitude" : -56.0974,
    "capital" : NumberInt(1),
    "codigo_uf" : NumberInt(51),
    "siafi_id" : NumberInt(9067),
    "ddd" : NumberInt(65),
    "fuso_horario" : "America/Porto_Velho"
}
{
    "_id" : ObjectId("673e5ac6909e0611d9239f1a"),
    "index" : NumberInt(38),
    "Unnamed: 0" : NumberInt(1522),
    "codigo_ibge" : NumberInt(5103437),
    "nome" : "Curvelândia",
    "latitude" : -15.6084,
    "longitude" : -57.9133,
    "capital" : NumberInt(0),
    "codigo_uf" : NumberInt(51),
    "siafi_id" : NumberInt(1084),
    "ddd" : NumberInt(65),
    "fuso_horario" : "America/Porto_Velho"
}
{
    "_id" : ObjectId("673e5ac6909e0611d9239f1b"),
    "index" : NumberInt(39),
    "Unnamed: 0" : NumberInt(1540),
    "codigo_ibge" : NumberInt(5103452),
    "nome" : "Denise",
    "latitude" : -14.7324,
    "longitude" : -57.0583,
    "capital" : NumberInt(0),
    "codigo_uf" : NumberInt(51),
    "siafi_id" : NumberInt(9833),
    "ddd" : NumberInt(65),
    "fuso_horario" : "America/Porto_Velho"
}
{
    "_id" : ObjectId("673e5ac6909e0611d9239f1c"),
    "index" : NumberInt(40),
    "Unnamed: 0" : NumberInt(1557),
    "codigo_ibge" : NumberInt(5103502),
    "nome" : "Diamantino",
    "latitude" : -14.4037,
    "longitude" : -56.4366,
    "capital" : NumberInt(0),
    "codigo_uf" : NumberInt(51),
    "siafi_id" : NumberInt(9069),
    "ddd" : NumberInt(65),
    "fuso_horario" : "America/Porto_Velho"
}
{
    "_id" : ObjectId("673e5ac6909e0611d9239f1d"),
    "index" : NumberInt(41),
    "Unnamed: 0" : NumberInt(1590),
    "codigo_ibge" : NumberInt(5103601),
    "nome" : "Dom Aquino",
    "latitude" : -15.8099,
    "longitude" : -54.9223,
    "capital" : NumberInt(0),
    "codigo_uf" : NumberInt(51),
    "siafi_id" : NumberInt(9071),
    "ddd" : NumberInt(66),
    "fuso_horario" : "America/Porto_Velho"
}
{
    "_id" : ObjectId("673e5ac6909e0611d9239f1e"),
    "index" : NumberInt(42),
    "Unnamed: 0" : NumberInt(1769),
    "codigo_ibge" : NumberInt(5103700),
    "nome" : "Feliz Natal",
    "latitude" : -12.385,
    "longitude" : -54.9227,
    "capital" : NumberInt(0),
    "codigo_uf" : NumberInt(51),
    "siafi_id" : NumberInt(1036),
    "ddd" : NumberInt(66),
    "fuso_horario" : "America/Porto_Velho"
}
{
    "_id" : ObjectId("673e5ac6909e0611d9239f1f"),
    "index" : NumberInt(43),
    "Unnamed: 0" : NumberInt(1787),
    "codigo_ibge" : NumberInt(5103809),
    "nome" : "Figueirópolis D'Oeste",
    "latitude" : -15.4439,
    "longitude" : -58.7391,
    "capital" : NumberInt(0),
    "codigo_uf" : NumberInt(51),
    "siafi_id" : NumberInt(9881),
    "ddd" : NumberInt(65),
    "fuso_horario" : "America/Porto_Velho"
}
{
    "_id" : ObjectId("673e5ac6909e0611d9239f20"),
    "index" : NumberInt(44),
    "Unnamed: 0" : NumberInt(1893),
    "codigo_ibge" : NumberInt(5103858),
    "nome" : "Gaúcha do Norte",
    "latitude" : -13.2443,
    "longitude" : -53.0809,
    "capital" : NumberInt(0),
    "codigo_uf" : NumberInt(51),
    "siafi_id" : NumberInt(1038),
    "ddd" : NumberInt(66),
    "fuso_horario" : "America/Porto_Velho"
}
{
    "_id" : ObjectId("673e5ac6909e0611d9239f21"),
    "index" : NumberInt(45),
    "Unnamed: 0" : NumberInt(1899),
    "codigo_ibge" : NumberInt(5103908),
    "nome" : "General Carneiro",
    "latitude" : -15.7094,
    "longitude" : -52.7574,
    "capital" : NumberInt(0),
    "codigo_uf" : NumberInt(51),
    "siafi_id" : NumberInt(9077),
    "ddd" : NumberInt(66),
    "fuso_horario" : "America/Porto_Velho"
}
{
    "_id" : ObjectId("673e5ac6909e0611d9239f22"),
    "index" : NumberInt(46),
    "Unnamed: 0" : NumberInt(1914),
    "codigo_ibge" : NumberInt(5103957),
    "nome" : "Glória D'Oeste",
    "latitude" : -15.768,
    "longitude" : -58.3108,
    "capital" : NumberInt(0),
    "codigo_uf" : NumberInt(51),
    "siafi_id" : NumberInt(135),
    "ddd" : NumberInt(65),
    "fuso_horario" : "America/Porto_Velho"
}
{
    "_id" : ObjectId("673e5ac6909e0611d9239f23"),
    "index" : NumberInt(47),
    "Unnamed: 0" : NumberInt(2019),
    "codigo_ibge" : NumberInt(5104104),
    "nome" : "Guarantã do Norte",
    "latitude" : -9.96218,
    "longitude" : -54.9121,
    "capital" : NumberInt(0),
    "codigo_uf" : NumberInt(51),
    "siafi_id" : NumberInt(9887),
    "ddd" : NumberInt(66),
    "fuso_horario" : "America/Porto_Velho"
}
{
    "_id" : ObjectId("673e5ac6909e0611d9239f24"),
    "index" : NumberInt(48),
    "Unnamed: 0" : NumberInt(2044),
    "codigo_ibge" : NumberInt(5104203),
    "nome" : "Guiratinga",
    "latitude" : -16.346,
    "longitude" : -53.7575,
    "capital" : NumberInt(0),
    "codigo_uf" : NumberInt(51),
    "siafi_id" : NumberInt(9083),
    "ddd" : NumberInt(66),
    "fuso_horario" : "America/Porto_Velho"
}
{
    "_id" : ObjectId("673e5ac6909e0611d9239f25"),
    "index" : NumberInt(49),
    "Unnamed: 0" : NumberInt(2201),
    "codigo_ibge" : NumberInt(5104500),
    "nome" : "Indiavaí",
    "latitude" : -15.4921,
    "longitude" : -58.5802,
    "capital" : NumberInt(0),
    "codigo_uf" : NumberInt(51),
    "siafi_id" : NumberInt(9877),
    "ddd" : NumberInt(65),
    "fuso_horario" : "America/Porto_Velho"
}
{
    "_id" : ObjectId("673e5ac6909e0611d9239f26"),
    "index" : NumberInt(50),
    "Unnamed: 0" : NumberInt(2236),
    "codigo_ibge" : NumberInt(5104526),
    "nome" : "Ipiranga do Norte",
    "latitude" : -12.2408,
    "longitude" : -56.1531,
    "capital" : NumberInt(0),
    "codigo_uf" : NumberInt(51),
    "siafi_id" : NumberInt(1184),
    "ddd" : NumberInt(65),
    "fuso_horario" : "America/Porto_Velho"
}
{
    "_id" : ObjectId("673e5ac6909e0611d9239f27"),
    "index" : NumberInt(51),
    "Unnamed: 0" : NumberInt(2350),
    "codigo_ibge" : NumberInt(5104542),
    "nome" : "Itanhangá",
    "latitude" : -12.2259,
    "longitude" : -56.6463,
    "capital" : NumberInt(0),
    "codigo_uf" : NumberInt(51),
    "siafi_id" : NumberInt(1186),
    "ddd" : NumberInt(66),
    "fuso_horario" : "America/Porto_Velho"
}
{
    "_id" : ObjectId("673e5ac6909e0611d9239f28"),
    "index" : NumberInt(52),
    "Unnamed: 0" : NumberInt(2422),
    "codigo_ibge" : NumberInt(5104559),
    "nome" : "Itaúba",
    "latitude" : -11.0614,
    "longitude" : -55.2766,
    "capital" : NumberInt(0),
    "codigo_uf" : NumberInt(51),
    "siafi_id" : NumberInt(9901),
    "ddd" : NumberInt(66),
    "fuso_horario" : "America/Porto_Velho"
}
{
    "_id" : ObjectId("673e5ac6909e0611d9239f29"),
    "index" : NumberInt(53),
    "Unnamed: 0" : NumberInt(2431),
    "codigo_ibge" : NumberInt(5104609),
    "nome" : "Itiquira",
    "latitude" : -17.2147,
    "longitude" : -54.1422,
    "capital" : NumberInt(0),
    "codigo_uf" : NumberInt(51),
    "siafi_id" : NumberInt(9091),
    "ddd" : NumberInt(65),
    "fuso_horario" : "America/Porto_Velho"
}
{
    "_id" : ObjectId("673e5ac6909e0611d9239f2a"),
    "index" : NumberInt(54),
    "Unnamed: 0" : NumberInt(2477),
    "codigo_ibge" : NumberInt(5104807),
    "nome" : "Jaciara",
    "latitude" : -15.9548,
    "longitude" : -54.9733,
    "capital" : NumberInt(0),
    "codigo_uf" : NumberInt(51),
    "siafi_id" : NumberInt(9095),
    "ddd" : NumberInt(66),
    "fuso_horario" : "America/Porto_Velho"
}
{
    "_id" : ObjectId("673e5ac6909e0611d9239f2b"),
    "index" : NumberInt(55),
    "Unnamed: 0" : NumberInt(2516),
    "codigo_ibge" : NumberInt(5104906),
    "nome" : "Jangada",
    "latitude" : -15.235,
    "longitude" : -56.4917,
    "capital" : NumberInt(0),
    "codigo_uf" : NumberInt(51),
    "siafi_id" : NumberInt(9861),
    "ddd" : NumberInt(65),
    "fuso_horario" : "America/Porto_Velho"
}
{
    "_id" : ObjectId("673e5ac6909e0611d9239f2c"),
    "index" : NumberInt(56),
    "Unnamed: 0" : NumberInt(2561),
    "codigo_ibge" : NumberInt(5105002),
    "nome" : "Jauru",
    "latitude" : -15.3342,
    "longitude" : -58.8723,
    "capital" : NumberInt(0),
    "codigo_uf" : NumberInt(51),
    "siafi_id" : NumberInt(8991),
    "ddd" : NumberInt(65),
    "fuso_horario" : "America/Porto_Velho"
}
{
    "_id" : ObjectId("673e5ac6909e0611d9239f2d"),
    "index" : NumberInt(57),
    "Unnamed: 0" : NumberInt(2618),
    "codigo_ibge" : NumberInt(5105101),
    "nome" : "Juara",
    "latitude" : -11.2639,
    "longitude" : -57.5244,
    "capital" : NumberInt(0),
    "codigo_uf" : NumberInt(51),
    "siafi_id" : NumberInt(9819),
    "ddd" : NumberInt(66),
    "fuso_horario" : "America/Porto_Velho"
}
{
    "_id" : ObjectId("673e5ac6909e0611d9239f2e"),
    "index" : NumberInt(58),
    "Unnamed: 0" : NumberInt(2630),
    "codigo_ibge" : NumberInt(5105150),
    "nome" : "Juína",
    "latitude" : -11.3728,
    "longitude" : -58.7483,
    "capital" : NumberInt(0),
    "codigo_uf" : NumberInt(51),
    "siafi_id" : NumberInt(9831),
    "ddd" : NumberInt(66),
    "fuso_horario" : "America/Porto_Velho"
}
{
    "_id" : ObjectId("673e5ac6909e0611d9239f2f"),
    "index" : NumberInt(59),
    "Unnamed: 0" : NumberInt(2656),
    "codigo_ibge" : NumberInt(5105176),
    "nome" : "Juruena",
    "latitude" : -10.3178,
    "longitude" : -58.3592,
    "capital" : NumberInt(0),
    "codigo_uf" : NumberInt(51),
    "siafi_id" : NumberInt(9921),
    "ddd" : NumberInt(66),
    "fuso_horario" : "America/Porto_Velho"
}
{
    "_id" : ObjectId("673e5ac6909e0611d9239f30"),
    "index" : NumberInt(60),
    "Unnamed: 0" : NumberInt(2658),
    "codigo_ibge" : NumberInt(5105200),
    "nome" : "Juscimeira",
    "latitude" : -16.0633,
    "longitude" : -54.8859,
    "capital" : NumberInt(0),
    "codigo_uf" : NumberInt(51),
    "siafi_id" : NumberInt(9189),
    "ddd" : NumberInt(66),
    "fuso_horario" : "America/Porto_Velho"
}
{
    "_id" : ObjectId("673e5ac6909e0611d9239f31"),
    "index" : NumberInt(61),
    "Unnamed: 0" : NumberInt(2735),
    "codigo_ibge" : NumberInt(5105234),
    "nome" : "Lambari D'Oeste",
    "latitude" : -15.3188,
    "longitude" : -58.0046,
    "capital" : NumberInt(0),
    "codigo_uf" : NumberInt(51),
    "siafi_id" : NumberInt(137),
    "ddd" : NumberInt(65),
    "fuso_horario" : "America/Porto_Velho"
}
{
    "_id" : ObjectId("673e5ac6909e0611d9239f32"),
    "index" : NumberInt(62),
    "Unnamed: 0" : NumberInt(2800),
    "codigo_ibge" : NumberInt(5105259),
    "nome" : "Lucas do Rio Verde",
    "latitude" : -13.0588,
    "longitude" : -55.9042,
    "capital" : NumberInt(0),
    "codigo_uf" : NumberInt(51),
    "siafi_id" : NumberInt(9925),
    "ddd" : NumberInt(65),
    "fuso_horario" : "America/Porto_Velho"
}
{
    "_id" : ObjectId("673e5ac6909e0611d9239f33"),
    "index" : NumberInt(63),
    "Unnamed: 0" : NumberInt(2804),
    "codigo_ibge" : NumberInt(5105309),
    "nome" : "Luciara",
    "latitude" : -11.2219,
    "longitude" : -50.6676,
    "capital" : NumberInt(0),
    "codigo_uf" : NumberInt(51),
    "siafi_id" : NumberInt(9105),
    "ddd" : NumberInt(66),
    "fuso_horario" : "America/Porto_Velho"
}
{
    "_id" : ObjectId("673e5ac6909e0611d9239f34"),
    "index" : NumberInt(64),
    "Unnamed: 0" : NumberInt(2936),
    "codigo_ibge" : NumberInt(5105580),
    "nome" : "Marcelândia",
    "latitude" : -11.0463,
    "longitude" : -54.4377,
    "capital" : NumberInt(0),
    "codigo_uf" : NumberInt(51),
    "siafi_id" : NumberInt(9899),
    "ddd" : NumberInt(66),
    "fuso_horario" : "America/Porto_Velho"
}
{
    "_id" : ObjectId("673e5ac6909e0611d9239f35"),
    "index" : NumberInt(65),
    "Unnamed: 0" : NumberInt(3023),
    "codigo_ibge" : NumberInt(5105606),
    "nome" : "Matupá",
    "latitude" : -10.1821,
    "longitude" : -54.9467,
    "capital" : NumberInt(0),
    "codigo_uf" : NumberInt(51),
    "siafi_id" : NumberInt(9929),
    "ddd" : NumberInt(66),
    "fuso_horario" : "America/Porto_Velho"
}
{
    "_id" : ObjectId("673e5ac6909e0611d9239f36"),
    "index" : NumberInt(66),
    "Unnamed: 0" : NumberInt(3096),
    "codigo_ibge" : NumberInt(5105622),
    "nome" : "Mirassol d'Oeste",
    "latitude" : -15.6759,
    "longitude" : -58.0951,
    "capital" : NumberInt(0),
    "codigo_uf" : NumberInt(51),
    "siafi_id" : NumberInt(9177),
    "ddd" : NumberInt(65),
    "fuso_horario" : "America/Porto_Velho"
}
{
    "_id" : ObjectId("673e5ac6909e0611d9239f37"),
    "index" : NumberInt(67),
    "Unnamed: 0" : NumberInt(3273),
    "codigo_ibge" : NumberInt(5105903),
    "nome" : "Nobres",
    "latitude" : -14.7192,
    "longitude" : -56.3284,
    "capital" : NumberInt(0),
    "codigo_uf" : NumberInt(51),
    "siafi_id" : NumberInt(9117),
    "ddd" : NumberInt(65),
    "fuso_horario" : "America/Porto_Velho"
}
{
    "_id" : ObjectId("673e5ac6909e0611d9239f38"),
    "index" : NumberInt(68),
    "Unnamed: 0" : NumberInt(3277),
    "codigo_ibge" : NumberInt(5106000),
    "nome" : "Nortelândia",
    "latitude" : -14.454,
    "longitude" : -56.7945,
    "capital" : NumberInt(0),
    "codigo_uf" : NumberInt(51),
    "siafi_id" : NumberInt(9119),
    "ddd" : NumberInt(65),
    "fuso_horario" : "America/Porto_Velho"
}
{
    "_id" : ObjectId("673e5ac6909e0611d9239f39"),
    "index" : NumberInt(69),
    "Unnamed: 0" : NumberInt(3284),
    "codigo_ibge" : NumberInt(5106109),
    "nome" : "Nossa Senhora do Livramento",
    "latitude" : -15.772,
    "longitude" : -56.3432,
    "capital" : NumberInt(0),
    "codigo_uf" : NumberInt(51),
    "siafi_id" : NumberInt(9121),
    "ddd" : NumberInt(65),
    "fuso_horario" : "America/Porto_Velho"
}
{
    "_id" : ObjectId("673e5ac6909e0611d9239f3a"),
    "index" : NumberInt(70),
    "Unnamed: 0" : NumberInt(3297),
    "codigo_ibge" : NumberInt(5106158),
    "nome" : "Nova Bandeirantes",
    "latitude" : -9.84977,
    "longitude" : -57.8139,
    "capital" : NumberInt(0),
    "codigo_uf" : NumberInt(51),
    "siafi_id" : NumberInt(117),
    "ddd" : NumberInt(66),
    "fuso_horario" : "America/Porto_Velho"
}
{
    "_id" : ObjectId("673e5ac6909e0611d9239f3b"),
    "index" : NumberInt(71),
    "Unnamed: 0" : NumberInt(3301),
    "codigo_ibge" : NumberInt(5106208),
    "nome" : "Nova Brasilândia",
    "latitude" : -14.9612,
    "longitude" : -54.9685,
    "capital" : NumberInt(0),
    "codigo_uf" : NumberInt(51),
    "siafi_id" : NumberInt(8981),
    "ddd" : NumberInt(66),
    "fuso_horario" : "America/Porto_Velho"
}
{
    "_id" : ObjectId("673e5ac6909e0611d9239f3c"),
    "index" : NumberInt(72),
    "Unnamed: 0" : NumberInt(3306),
    "codigo_ibge" : NumberInt(5106216),
    "nome" : "Nova Canaã do Norte",
    "latitude" : -10.558,
    "longitude" : -55.953,
    "capital" : NumberInt(0),
    "codigo_uf" : NumberInt(51),
    "siafi_id" : NumberInt(9889),
    "ddd" : NumberInt(66),
    "fuso_horario" : "America/Porto_Velho"
}
{
    "_id" : ObjectId("673e5ac6909e0611d9239f3d"),
    "index" : NumberInt(73),
    "Unnamed: 0" : NumberInt(3327),
    "codigo_ibge" : NumberInt(5108808),
    "nome" : "Nova Guarita",
    "latitude" : -10.312,
    "longitude" : -55.4061,
    "capital" : NumberInt(0),
    "codigo_uf" : NumberInt(51),
    "siafi_id" : NumberInt(121),
    "ddd" : NumberInt(66),
    "fuso_horario" : "America/Porto_Velho"
}
{
    "_id" : ObjectId("673e5ac6909e0611d9239f3e"),
    "index" : NumberInt(74),
    "Unnamed: 0" : NumberInt(3338),
    "codigo_ibge" : NumberInt(5106182),
    "nome" : "Nova Lacerda",
    "latitude" : -14.4727,
    "longitude" : -59.6001,
    "capital" : NumberInt(0),
    "codigo_uf" : NumberInt(51),
    "siafi_id" : NumberInt(1040),
    "ddd" : NumberInt(65),
    "fuso_horario" : "America/Porto_Velho"
}
{
    "_id" : ObjectId("673e5ac6909e0611d9239f3f"),
    "index" : NumberInt(75),
    "Unnamed: 0" : NumberInt(3344),
    "codigo_ibge" : NumberInt(5108857),
    "nome" : "Nova Marilândia",
    "latitude" : -14.3568,
    "longitude" : -56.9696,
    "capital" : NumberInt(0),
    "codigo_uf" : NumberInt(51),
    "siafi_id" : NumberInt(103),
    "ddd" : NumberInt(65),
    "fuso_horario" : "America/Porto_Velho"
}
{
    "_id" : ObjectId("673e5ac6909e0611d9239f40"),
    "index" : NumberInt(76),
    "Unnamed: 0" : NumberInt(3345),
    "codigo_ibge" : NumberInt(5108907),
    "nome" : "Nova Maringá",
    "latitude" : -13.0136,
    "longitude" : -57.0908,
    "capital" : NumberInt(0),
    "codigo_uf" : NumberInt(51),
    "siafi_id" : NumberInt(111),
    "ddd" : NumberInt(66),
    "fuso_horario" : "America/Porto_Velho"
}
{
    "_id" : ObjectId("673e5ac6909e0611d9239f41"),
    "index" : NumberInt(77),
    "Unnamed: 0" : NumberInt(3347),
    "codigo_ibge" : NumberInt(5108956),
    "nome" : "Nova Monte Verde",
    "latitude" : -9.99998,
    "longitude" : -57.5261,
    "capital" : NumberInt(0),
    "codigo_uf" : NumberInt(51),
    "siafi_id" : NumberInt(119),
    "ddd" : NumberInt(66),
    "fuso_horario" : "America/Porto_Velho"
}
{
    "_id" : ObjectId("673e5ac6909e0611d9239f42"),
    "index" : NumberInt(78),
    "Unnamed: 0" : NumberInt(3348),
    "codigo_ibge" : NumberInt(5106224),
    "nome" : "Nova Mutum",
    "latitude" : -13.8374,
    "longitude" : -56.0743,
    "capital" : NumberInt(0),
    "codigo_uf" : NumberInt(51),
    "siafi_id" : NumberInt(9937),
    "ddd" : NumberInt(65),
    "fuso_horario" : "America/Porto_Velho"
}
{
    "_id" : ObjectId("673e5ac6909e0611d9239f43"),
    "index" : NumberInt(79),
    "Unnamed: 0" : NumberInt(3349),
    "codigo_ibge" : NumberInt(5106174),
    "nome" : "Nova Nazaré",
    "latitude" : -13.9486,
    "longitude" : -51.8002,
    "capital" : NumberInt(0),
    "codigo_uf" : NumberInt(51),
    "siafi_id" : NumberInt(1086),
    "ddd" : NumberInt(66),
    "fuso_horario" : "America/Porto_Velho"
}
{
    "_id" : ObjectId("673e5ac6909e0611d9239f44"),
    "index" : NumberInt(80),
    "Unnamed: 0" : NumberInt(3352),
    "codigo_ibge" : NumberInt(5106232),
    "nome" : "Nova Olímpia",
    "latitude" : -14.7889,
    "longitude" : -57.2886,
    "capital" : NumberInt(0),
    "codigo_uf" : NumberInt(51),
    "siafi_id" : NumberInt(9893),
    "ddd" : NumberInt(65),
    "fuso_horario" : "America/Porto_Velho"
}
{
    "_id" : ObjectId("673e5ac6909e0611d9239f45"),
    "index" : NumberInt(81),
    "Unnamed: 0" : NumberInt(3374),
    "codigo_ibge" : NumberInt(5106190),
    "nome" : "Nova Santa Helena",
    "latitude" : -10.8651,
    "longitude" : -55.1872,
    "capital" : NumberInt(0),
    "codigo_uf" : NumberInt(51),
    "siafi_id" : NumberInt(1088),
    "ddd" : NumberInt(66),
    "fuso_horario" : "America/Porto_Velho"
}
{
    "_id" : ObjectId("673e5ac6909e0611d9239f46"),
    "index" : NumberInt(82),
    "Unnamed: 0" : NumberInt(3383),
    "codigo_ibge" : NumberInt(5106240),
    "nome" : "Nova Ubiratã",
    "latitude" : -12.9834,
    "longitude" : -55.2556,
    "capital" : NumberInt(0),
    "codigo_uf" : NumberInt(51),
    "siafi_id" : NumberInt(1042),
    "ddd" : NumberInt(66),
    "fuso_horario" : "America/Porto_Velho"
}
{
    "_id" : ObjectId("673e5ac6909e0611d9239f47"),
    "index" : NumberInt(83),
    "Unnamed: 0" : NumberInt(3390),
    "codigo_ibge" : NumberInt(5106257),
    "nome" : "Nova Xavantina",
    "latitude" : -14.6771,
    "longitude" : -52.3502,
    "capital" : NumberInt(0),
    "codigo_uf" : NumberInt(51),
    "siafi_id" : NumberInt(9195),
    "ddd" : NumberInt(66),
    "fuso_horario" : "America/Porto_Velho"
}
{
    "_id" : ObjectId("673e5ac6909e0611d9239f48"),
    "index" : NumberInt(84),
    "Unnamed: 0" : NumberInt(3405),
    "codigo_ibge" : NumberInt(5106273),
    "nome" : "Novo Horizonte do Norte",
    "latitude" : -11.4089,
    "longitude" : -57.3488,
    "capital" : NumberInt(0),
    "codigo_uf" : NumberInt(51),
    "siafi_id" : NumberInt(9903),
    "ddd" : NumberInt(66),
    "fuso_horario" : "America/Porto_Velho"
}
{
    "_id" : ObjectId("673e5ac6909e0611d9239f49"),
    "index" : NumberInt(85),
    "Unnamed: 0" : NumberInt(3412),
    "codigo_ibge" : NumberInt(5106265),
    "nome" : "Novo Mundo",
    "latitude" : -9.95616,
    "longitude" : -55.2029,
    "capital" : NumberInt(0),
    "codigo_uf" : NumberInt(51),
    "siafi_id" : NumberInt(1044),
    "ddd" : NumberInt(66),
    "fuso_horario" : "America/Porto_Velho"
}
{
    "_id" : ObjectId("673e5ac6909e0611d9239f4a"),
    "index" : NumberInt(86),
    "Unnamed: 0" : NumberInt(3420),
    "codigo_ibge" : NumberInt(5106315),
    "nome" : "Novo Santo Antônio",
    "latitude" : -12.2875,
    "longitude" : -50.9686,
    "capital" : NumberInt(0),
    "codigo_uf" : NumberInt(51),
    "siafi_id" : NumberInt(1090),
    "ddd" : NumberInt(66),
    "fuso_horario" : "America/Porto_Velho"
}
{
    "_id" : ObjectId("673e5ac6909e0611d9239f4b"),
    "index" : NumberInt(87),
    "Unnamed: 0" : NumberInt(3421),
    "codigo_ibge" : NumberInt(5106281),
    "nome" : "Novo São Joaquim",
    "latitude" : -14.9054,
    "longitude" : -53.0194,
    "capital" : NumberInt(0),
    "codigo_uf" : NumberInt(51),
    "siafi_id" : NumberInt(9867),
    "ddd" : NumberInt(66),
    "fuso_horario" : "America/Porto_Velho"
}
{
    "_id" : ObjectId("673e5ac6909e0611d9239f4c"),
    "index" : NumberInt(88),
    "Unnamed: 0" : NumberInt(3593),
    "codigo_ibge" : NumberInt(5106299),
    "nome" : "Paranaíta",
    "latitude" : -9.65835,
    "longitude" : -56.4786,
    "capital" : NumberInt(0),
    "codigo_uf" : NumberInt(51),
    "siafi_id" : NumberInt(9885),
    "ddd" : NumberInt(66),
    "fuso_horario" : "America/Porto_Velho"
}
{
    "_id" : ObjectId("673e5ac6909e0611d9239f4d"),
    "index" : NumberInt(89),
    "Unnamed: 0" : NumberInt(3598),
    "codigo_ibge" : NumberInt(5106307),
    "nome" : "Paranatinga",
    "latitude" : -14.4265,
    "longitude" : -54.0524,
    "capital" : NumberInt(0),
    "codigo_uf" : NumberInt(51),
    "siafi_id" : NumberInt(8983),
    "ddd" : NumberInt(66),
    "fuso_horario" : "America/Porto_Velho"
}
{
    "_id" : ObjectId("673e5ac6909e0611d9239f4e"),
    "index" : NumberInt(90),
    "Unnamed: 0" : NumberInt(3700),
    "codigo_ibge" : NumberInt(5106372),
    "nome" : "Pedra Preta",
    "latitude" : -16.6245,
    "longitude" : -54.4722,
    "capital" : NumberInt(0),
    "codigo_uf" : NumberInt(51),
    "siafi_id" : NumberInt(9181),
    "ddd" : NumberInt(66),
    "fuso_horario" : "America/Porto_Velho"
}
{
    "_id" : ObjectId("673e5ac6909e0611d9239f4f"),
    "index" : NumberInt(91),
    "Unnamed: 0" : NumberInt(3730),
    "codigo_ibge" : NumberInt(5106422),
    "nome" : "Peixoto de Azevedo",
    "latitude" : -10.2262,
    "longitude" : -54.9794,
    "capital" : NumberInt(0),
    "codigo_uf" : NumberInt(51),
    "siafi_id" : NumberInt(9891),
    "ddd" : NumberInt(66),
    "fuso_horario" : "America/Porto_Velho"
}
{
    "_id" : ObjectId("673e5ac6909e0611d9239f50"),
    "index" : NumberInt(92),
    "Unnamed: 0" : NumberInt(3882),
    "codigo_ibge" : NumberInt(5106455),
    "nome" : "Planalto da Serra",
    "latitude" : -14.6518,
    "longitude" : -54.7819,
    "capital" : NumberInt(0),
    "codigo_uf" : NumberInt(51),
    "siafi_id" : NumberInt(91),
    "ddd" : NumberInt(66),
    "fuso_horario" : "America/Porto_Velho"
}
{
    "_id" : ObjectId("673e5ac6909e0611d9239f51"),
    "index" : NumberInt(93),
    "Unnamed: 0" : NumberInt(3898),
    "codigo_ibge" : NumberInt(5106505),
    "nome" : "Poconé",
    "latitude" : -16.266,
    "longitude" : -56.6261,
    "capital" : NumberInt(0),
    "codigo_uf" : NumberInt(51),
    "siafi_id" : NumberInt(9129),
    "ddd" : NumberInt(65),
    "fuso_horario" : "America/Porto_Velho"
}
{
    "_id" : ObjectId("673e5ac6909e0611d9239f52"),
    "index" : NumberInt(94),
    "Unnamed: 0" : NumberInt(3913),
    "codigo_ibge" : NumberInt(5106653),
    "nome" : "Pontal do Araguaia",
    "latitude" : -15.9274,
    "longitude" : -52.3273,
    "capital" : NumberInt(0),
    "codigo_uf" : NumberInt(51),
    "siafi_id" : NumberInt(95),
    "ddd" : NumberInt(66),
    "fuso_horario" : "America/Porto_Velho"
}
{
    "_id" : ObjectId("673e5ac6909e0611d9239f53"),
    "index" : NumberInt(95),
    "Unnamed: 0" : NumberInt(3922),
    "codigo_ibge" : NumberInt(5106703),
    "nome" : "Ponte Branca",
    "latitude" : -16.7584,
    "longitude" : -52.8369,
    "capital" : NumberInt(0),
    "codigo_uf" : NumberInt(51),
    "siafi_id" : NumberInt(9133),
    "ddd" : NumberInt(66),
    "fuso_horario" : "America/Porto_Velho"
}
{
    "_id" : ObjectId("673e5ac6909e0611d9239f54"),
    "index" : NumberInt(96),
    "Unnamed: 0" : NumberInt(3926),
    "codigo_ibge" : NumberInt(5106752),
    "nome" : "Pontes e Lacerda",
    "latitude" : -15.2219,
    "longitude" : -59.3435,
    "capital" : NumberInt(0),
    "codigo_uf" : NumberInt(51),
    "siafi_id" : NumberInt(8999),
    "ddd" : NumberInt(65),
    "fuso_horario" : "America/Porto_Velho"
}
{
    "_id" : ObjectId("673e5ac6909e0611d9239f55"),
    "index" : NumberInt(97),
    "Unnamed: 0" : NumberInt(3948),
    "codigo_ibge" : NumberInt(5106778),
    "nome" : "Porto Alegre do Norte",
    "latitude" : -10.8761,
    "longitude" : -51.6357,
    "capital" : NumberInt(0),
    "codigo_uf" : NumberInt(51),
    "siafi_id" : NumberInt(9895),
    "ddd" : NumberInt(66),
    "fuso_horario" : "America/Porto_Velho"
}
{
    "_id" : ObjectId("673e5ac6909e0611d9239f56"),
    "index" : NumberInt(98),
    "Unnamed: 0" : NumberInt(3959),
    "codigo_ibge" : NumberInt(5106802),
    "nome" : "Porto dos Gaúchos",
    "latitude" : -11.533,
    "longitude" : -57.4132,
    "capital" : NumberInt(0),
    "codigo_uf" : NumberInt(51),
    "siafi_id" : NumberInt(9135),
    "ddd" : NumberInt(66),
    "fuso_horario" : "America/Porto_Velho"
}
{
    "_id" : ObjectId("673e5ac6909e0611d9239f57"),
    "index" : NumberInt(99),
    "Unnamed: 0" : NumberInt(3960),
    "codigo_ibge" : NumberInt(5106828),
    "nome" : "Porto Esperidião",
    "latitude" : -15.857,
    "longitude" : -58.4619,
    "capital" : NumberInt(0),
    "codigo_uf" : NumberInt(51),
    "siafi_id" : NumberInt(9875),
    "ddd" : NumberInt(65),
    "fuso_horario" : "America/Porto_Velho"
}
{
    "_id" : ObjectId("673e5ac6909e0611d9239f58"),
    "index" : NumberInt(100),
    "Unnamed: 0" : NumberInt(3961),
    "codigo_ibge" : NumberInt(5106851),
    "nome" : "Porto Estrela",
    "latitude" : -15.3235,
    "longitude" : -57.2204,
    "capital" : NumberInt(0),
    "codigo_uf" : NumberInt(51),
    "siafi_id" : NumberInt(101),
    "ddd" : NumberInt(65),
    "fuso_horario" : "America/Porto_Velho"
}
{
    "_id" : ObjectId("673e5ac6909e0611d9239f59"),
    "index" : NumberInt(101),
    "Unnamed: 0" : NumberInt(3993),
    "codigo_ibge" : NumberInt(5107008),
    "nome" : "Poxoréu",
    "latitude" : -15.8299,
    "longitude" : -54.4208,
    "capital" : NumberInt(0),
    "codigo_uf" : NumberInt(51),
    "siafi_id" : NumberInt(9139),
    "ddd" : NumberInt(66),
    "fuso_horario" : "America/Porto_Velho"
}
{
    "_id" : ObjectId("673e5ac6909e0611d9239f5a"),
    "index" : NumberInt(102),
    "Unnamed: 0" : NumberInt(4040),
    "codigo_ibge" : NumberInt(5107040),
    "nome" : "Primavera do Leste",
    "latitude" : -15.544,
    "longitude" : -54.2811,
    "capital" : NumberInt(0),
    "codigo_uf" : NumberInt(51),
    "siafi_id" : NumberInt(9871),
    "ddd" : NumberInt(66),
    "fuso_horario" : "America/Porto_Velho"
}
{
    "_id" : ObjectId("673e5ac6909e0611d9239f5b"),
    "index" : NumberInt(103),
    "Unnamed: 0" : NumberInt(4076),
    "codigo_ibge" : NumberInt(5107065),
    "nome" : "Querência",
    "latitude" : -12.6093,
    "longitude" : -52.1821,
    "capital" : NumberInt(0),
    "codigo_uf" : NumberInt(51),
    "siafi_id" : NumberInt(97),
    "ddd" : NumberInt(66),
    "fuso_horario" : "America/Porto_Velho"
}
{
    "_id" : ObjectId("673e5ac6909e0611d9239f5c"),
    "index" : NumberInt(104),
    "Unnamed: 0" : NumberInt(4131),
    "codigo_ibge" : NumberInt(5107156),
    "nome" : "Reserva do Cabaçal",
    "latitude" : -15.0743,
    "longitude" : -58.4585,
    "capital" : NumberInt(0),
    "codigo_uf" : NumberInt(51),
    "siafi_id" : NumberInt(9879),
    "ddd" : NumberInt(65),
    "fuso_horario" : "America/Porto_Velho"
}
{
    "_id" : ObjectId("673e5ac6909e0611d9239f5d"),
    "index" : NumberInt(105),
    "Unnamed: 0" : NumberInt(4168),
    "codigo_ibge" : NumberInt(5107180),
    "nome" : "Ribeirão Cascalheira",
    "latitude" : -12.9367,
    "longitude" : -51.8244,
    "capital" : NumberInt(0),
    "codigo_uf" : NumberInt(51),
    "siafi_id" : NumberInt(9741),
    "ddd" : NumberInt(66),
    "fuso_horario" : "America/Porto_Velho"
}
{
    "_id" : ObjectId("673e5ac6909e0611d9239f5e"),
    "index" : NumberInt(106),
    "Unnamed: 0" : NumberInt(4180),
    "codigo_ibge" : NumberInt(5107198),
    "nome" : "Ribeirãozinho",
    "latitude" : -16.4856,
    "longitude" : -52.6924,
    "capital" : NumberInt(0),
    "codigo_uf" : NumberInt(51),
    "siafi_id" : NumberInt(99),
    "ddd" : NumberInt(66),
    "fuso_horario" : "America/Porto_Velho"
}
{
    "_id" : ObjectId("673e5ac6909e0611d9239f5f"),
    "index" : NumberInt(107),
    "Unnamed: 0" : NumberInt(4192),
    "codigo_ibge" : NumberInt(5107206),
    "nome" : "Rio Branco",
    "latitude" : -15.2483,
    "longitude" : -58.1259,
    "capital" : NumberInt(0),
    "codigo_uf" : NumberInt(51),
    "siafi_id" : NumberInt(8995),
    "ddd" : NumberInt(65),
    "fuso_horario" : "America/Porto_Velho"
}
{
    "_id" : ObjectId("673e5ac6909e0611d9239f60"),
    "index" : NumberInt(108),
    "Unnamed: 0" : NumberInt(4271),
    "codigo_ibge" : NumberInt(5107578),
    "nome" : "Rondolândia",
    "latitude" : -10.8376,
    "longitude" : -61.4697,
    "capital" : NumberInt(0),
    "codigo_uf" : NumberInt(51),
    "siafi_id" : NumberInt(1092),
    "ddd" : NumberInt(66),
    "fuso_horario" : "America/Porto_Velho"
}
{
    "_id" : ObjectId("673e5ac6909e0611d9239f61"),
    "index" : NumberInt(109),
    "Unnamed: 0" : NumberInt(4274),
    "codigo_ibge" : NumberInt(5107602),
    "nome" : "Rondonópolis",
    "latitude" : -16.4673,
    "longitude" : -54.6372,
    "capital" : NumberInt(0),
    "codigo_uf" : NumberInt(51),
    "siafi_id" : NumberInt(9151),
    "ddd" : NumberInt(66),
    "fuso_horario" : "America/Porto_Velho"
}
{
    "_id" : ObjectId("673e5ac6909e0611d9239f62"),
    "index" : NumberInt(110),
    "Unnamed: 0" : NumberInt(4283),
    "codigo_ibge" : NumberInt(5107701),
    "nome" : "Rosário Oeste",
    "latitude" : -14.8259,
    "longitude" : -56.4236,
    "capital" : NumberInt(0),
    "codigo_uf" : NumberInt(51),
    "siafi_id" : NumberInt(9153),
    "ddd" : NumberInt(65),
    "fuso_horario" : "America/Porto_Velho"
}
{
    "_id" : ObjectId("673e5ac6909e0611d9239f63"),
    "index" : NumberInt(111),
    "Unnamed: 0" : NumberInt(4326),
    "codigo_ibge" : NumberInt(5107750),
    "nome" : "Salto do Céu",
    "latitude" : -15.1303,
    "longitude" : -58.1317,
    "capital" : NumberInt(0),
    "codigo_uf" : NumberInt(51),
    "siafi_id" : NumberInt(8997),
    "ddd" : NumberInt(65),
    "fuso_horario" : "America/Porto_Velho"
}
{
    "_id" : ObjectId("673e5ac6909e0611d9239f64"),
    "index" : NumberInt(112),
    "Unnamed: 0" : NumberInt(4359),
    "codigo_ibge" : NumberInt(5107248),
    "nome" : "Santa Carmem",
    "latitude" : -11.9125,
    "longitude" : -55.2263,
    "capital" : NumberInt(0),
    "codigo_uf" : NumberInt(51),
    "siafi_id" : NumberInt(123),
    "ddd" : NumberInt(66),
    "fuso_horario" : "America/Porto_Velho"
}
{
    "_id" : ObjectId("673e5ac6909e0611d9239f65"),
    "index" : NumberInt(113),
    "Unnamed: 0" : NumberInt(4385),
    "codigo_ibge" : NumberInt(5107743),
    "nome" : "Santa Cruz do Xingu",
    "latitude" : -10.1532,
    "longitude" : -52.3953,
    "capital" : NumberInt(0),
    "codigo_uf" : NumberInt(51),
    "siafi_id" : NumberInt(1094),
    "ddd" : NumberInt(66),
    "fuso_horario" : "America/Porto_Velho"
}
{
    "_id" : ObjectId("673e5ac6909e0611d9239f66"),
    "index" : NumberInt(114),
    "Unnamed: 0" : NumberInt(4466),
    "codigo_ibge" : NumberInt(5107768),
    "nome" : "Santa Rita do Trivelato",
    "latitude" : -13.8146,
    "longitude" : -55.2706,
    "capital" : NumberInt(0),
    "codigo_uf" : NumberInt(51),
    "siafi_id" : NumberInt(1096),
    "ddd" : NumberInt(65),
    "fuso_horario" : "America/Porto_Velho"
}
{
    "_id" : ObjectId("673e5ac6909e0611d9239f67"),
    "index" : NumberInt(115),
    "Unnamed: 0" : NumberInt(4486),
    "codigo_ibge" : NumberInt(5107776),
    "nome" : "Santa Terezinha",
    "latitude" : -10.4704,
    "longitude" : -50.514,
    "capital" : NumberInt(0),
    "codigo_uf" : NumberInt(51),
    "siafi_id" : NumberInt(9197),
    "ddd" : NumberInt(66),
    "fuso_horario" : "America/Porto_Velho"
}
{
    "_id" : ObjectId("673e5ac6909e0611d9239f68"),
    "index" : NumberInt(116),
    "Unnamed: 0" : NumberInt(4528),
    "codigo_ibge" : NumberInt(5107263),
    "nome" : "Santo Afonso",
    "latitude" : -14.4945,
    "longitude" : -57.0091,
    "capital" : NumberInt(0),
    "codigo_uf" : NumberInt(51),
    "siafi_id" : NumberInt(115),
    "ddd" : NumberInt(65),
    "fuso_horario" : "America/Porto_Velho"
}
{
    "_id" : ObjectId("673e5ac6909e0611d9239f69"),
    "index" : NumberInt(117),
    "Unnamed: 0" : NumberInt(4558),
    "codigo_ibge" : NumberInt(5107792),
    "nome" : "Santo Antônio do Leste",
    "latitude" : -14.805,
    "longitude" : -53.6075,
    "capital" : NumberInt(0),
    "codigo_uf" : NumberInt(51),
    "siafi_id" : NumberInt(1098),
    "ddd" : NumberInt(66),
    "fuso_horario" : "America/Porto_Velho"
}
{
    "_id" : ObjectId("673e5ac6909e0611d9239f6a"),
    "index" : NumberInt(118),
    "Unnamed: 0" : NumberInt(4559),
    "codigo_ibge" : NumberInt(5107800),
    "nome" : "Santo Antônio do Leverger",
    "latitude" : -15.8632,
    "longitude" : -56.0788,
    "capital" : NumberInt(0),
    "codigo_uf" : NumberInt(51),
    "siafi_id" : NumberInt(9155),
    "ddd" : NumberInt(65),
    "fuso_horario" : "America/Porto_Velho"
}
{
    "_id" : ObjectId("673e5ac6909e0611d9239f6b"),
    "index" : NumberInt(119),
    "Unnamed: 0" : NumberInt(4631),
    "codigo_ibge" : NumberInt(5107859),
    "nome" : "São Félix do Araguaia",
    "latitude" : -11.615,
    "longitude" : -50.6706,
    "capital" : NumberInt(0),
    "codigo_uf" : NumberInt(51),
    "siafi_id" : NumberInt(9183),
    "ddd" : NumberInt(66),
    "fuso_horario" : "America/Porto_Velho"
}
{
    "_id" : ObjectId("673e5ac6909e0611d9239f6c"),
    "index" : NumberInt(120),
    "Unnamed: 0" : NumberInt(4785),
    "codigo_ibge" : NumberInt(5107297),
    "nome" : "São José do Povo",
    "latitude" : -16.4549,
    "longitude" : -54.2487,
    "capital" : NumberInt(0),
    "codigo_uf" : NumberInt(51),
    "siafi_id" : NumberInt(6087),
    "ddd" : NumberInt(66),
    "fuso_horario" : "America/Porto_Velho"
}
{
    "_id" : ObjectId("673e5ac6909e0611d9239f6d"),
    "index" : NumberInt(121),
    "Unnamed: 0" : NumberInt(4786),
    "codigo_ibge" : NumberInt(5107305),
    "nome" : "São José do Rio Claro",
    "latitude" : -13.4398,
    "longitude" : -56.7218,
    "capital" : NumberInt(0),
    "codigo_uf" : NumberInt(51),
    "siafi_id" : NumberInt(9199),
    "ddd" : NumberInt(65),
    "fuso_horario" : "America/Porto_Velho"
}
{
    "_id" : ObjectId("673e5ac6909e0611d9239f6e"),
    "index" : NumberInt(122),
    "Unnamed: 0" : NumberInt(4793),
    "codigo_ibge" : NumberInt(5107354),
    "nome" : "São José do Xingu",
    "latitude" : -10.7982,
    "longitude" : -52.7486,
    "capital" : NumberInt(0),
    "codigo_uf" : NumberInt(51),
    "siafi_id" : NumberInt(133),
    "ddd" : NumberInt(66),
    "fuso_horario" : "America/Porto_Velho"
}
{
    "_id" : ObjectId("673e5ac6909e0611d9239f6f"),
    "index" : NumberInt(123),
    "Unnamed: 0" : NumberInt(4799),
    "codigo_ibge" : NumberInt(5107107),
    "nome" : "São José dos Quatro Marcos",
    "latitude" : -15.6276,
    "longitude" : -58.1772,
    "capital" : NumberInt(0),
    "codigo_uf" : NumberInt(51),
    "siafi_id" : NumberInt(8993),
    "ddd" : NumberInt(65),
    "fuso_horario" : "America/Porto_Velho"
}
{
    "_id" : ObjectId("673e5ac6909e0611d9239f70"),
    "index" : NumberInt(124),
    "Unnamed: 0" : NumberInt(4861),
    "codigo_ibge" : NumberInt(5107404),
    "nome" : "São Pedro da Cipa",
    "latitude" : -16.0109,
    "longitude" : -54.9176,
    "capital" : NumberInt(0),
    "codigo_uf" : NumberInt(51),
    "siafi_id" : NumberInt(93),
    "ddd" : NumberInt(66),
    "fuso_horario" : "America/Porto_Velho"
}
{
    "_id" : ObjectId("673e5ac6909e0611d9239f71"),
    "index" : NumberInt(125),
    "Unnamed: 0" : NumberInt(4928),
    "codigo_ibge" : NumberInt(5107875),
    "nome" : "Sapezal",
    "latitude" : -12.9892,
    "longitude" : -58.7645,
    "capital" : NumberInt(0),
    "codigo_uf" : NumberInt(51),
    "siafi_id" : NumberInt(1046),
    "ddd" : NumberInt(65),
    "fuso_horario" : "America/Porto_Velho"
}
{
    "_id" : ObjectId("673e5ac6909e0611d9239f72"),
    "index" : NumberInt(126),
    "Unnamed: 0" : NumberInt(5010),
    "codigo_ibge" : NumberInt(5107883),
    "nome" : "Serra Nova Dourada",
    "latitude" : -12.0896,
    "longitude" : -51.4025,
    "capital" : NumberInt(0),
    "codigo_uf" : NumberInt(51),
    "siafi_id" : NumberInt(1100),
    "ddd" : NumberInt(66),
    "fuso_horario" : "America/Porto_Velho"
}
{
    "_id" : ObjectId("673e5ac6909e0611d9239f73"),
    "index" : NumberInt(127),
    "Unnamed: 0" : NumberInt(5062),
    "codigo_ibge" : NumberInt(5107909),
    "nome" : "Sinop",
    "latitude" : -11.8604,
    "longitude" : -55.5091,
    "capital" : NumberInt(0),
    "codigo_uf" : NumberInt(51),
    "siafi_id" : NumberInt(8985),
    "ddd" : NumberInt(66),
    "fuso_horario" : "America/Porto_Velho"
}
{
    "_id" : ObjectId("673e5ac6909e0611d9239f74"),
    "index" : NumberInt(128),
    "Unnamed: 0" : NumberInt(5089),
    "codigo_ibge" : NumberInt(5107925),
    "nome" : "Sorriso",
    "latitude" : -12.5425,
    "longitude" : -55.7211,
    "capital" : NumberInt(0),
    "codigo_uf" : NumberInt(51),
    "siafi_id" : NumberInt(9907),
    "ddd" : NumberInt(66),
    "fuso_horario" : "America/Porto_Velho"
}
{
    "_id" : ObjectId("673e5ac6909e0611d9239f75"),
    "index" : NumberInt(129),
    "Unnamed: 0" : NumberInt(5108),
    "codigo_ibge" : NumberInt(5107941),
    "nome" : "Tabaporã",
    "latitude" : -11.3007,
    "longitude" : -56.8312,
    "capital" : NumberInt(0),
    "codigo_uf" : NumberInt(51),
    "siafi_id" : NumberInt(125),
    "ddd" : NumberInt(66),
    "fuso_horario" : "America/Porto_Velho"
}
{
    "_id" : ObjectId("673e5ac6909e0611d9239f76"),
    "index" : NumberInt(130),
    "Unnamed: 0" : NumberInt(5142),
    "codigo_ibge" : NumberInt(5107958),
    "nome" : "Tangará da Serra",
    "latitude" : -14.6229,
    "longitude" : -57.4933,
    "capital" : NumberInt(0),
    "codigo_uf" : NumberInt(51),
    "siafi_id" : NumberInt(9185),
    "ddd" : NumberInt(65),
    "fuso_horario" : "America/Porto_Velho"
}
{
    "_id" : ObjectId("673e5ac6909e0611d9239f77"),
    "index" : NumberInt(131),
    "Unnamed: 0" : NumberInt(5163),
    "codigo_ibge" : NumberInt(5108006),
    "nome" : "Tapurah",
    "latitude" : -12.695,
    "longitude" : -56.5178,
    "capital" : NumberInt(0),
    "codigo_uf" : NumberInt(51),
    "siafi_id" : NumberInt(9763),
    "ddd" : NumberInt(66),
    "fuso_horario" : "America/Porto_Velho"
}
{
    "_id" : ObjectId("673e5ac6909e0611d9239f78"),
    "index" : NumberInt(132),
    "Unnamed: 0" : NumberInt(5219),
    "codigo_ibge" : NumberInt(5108055),
    "nome" : "Terra Nova do Norte",
    "latitude" : -10.517,
    "longitude" : -55.231,
    "capital" : NumberInt(0),
    "codigo_uf" : NumberInt(51),
    "siafi_id" : NumberInt(9909),
    "ddd" : NumberInt(66),
    "fuso_horario" : "America/Porto_Velho"
}
{
    "_id" : ObjectId("673e5ac6909e0611d9239f79"),
    "index" : NumberInt(133),
    "Unnamed: 0" : NumberInt(5224),
    "codigo_ibge" : NumberInt(5108105),
    "nome" : "Tesouro",
    "latitude" : -16.0809,
    "longitude" : -53.559,
    "capital" : NumberInt(0),
    "codigo_uf" : NumberInt(51),
    "siafi_id" : NumberInt(9161),
    "ddd" : NumberInt(66),
    "fuso_horario" : "America/Porto_Velho"
}
{
    "_id" : ObjectId("673e5ac6909e0611d9239f7a"),
    "index" : NumberInt(134),
    "Unnamed: 0" : NumberInt(5261),
    "codigo_ibge" : NumberInt(5108204),
    "nome" : "Torixoréu",
    "latitude" : -16.2006,
    "longitude" : -52.5571,
    "capital" : NumberInt(0),
    "codigo_uf" : NumberInt(51),
    "siafi_id" : NumberInt(9163),
    "ddd" : NumberInt(66),
    "fuso_horario" : "America/Porto_Velho"
}
{
    "_id" : ObjectId("673e5ac6909e0611d9239f7b"),
    "index" : NumberInt(135),
    "Unnamed: 0" : NumberInt(5382),
    "codigo_ibge" : NumberInt(5108303),
    "nome" : "União do Sul",
    "latitude" : -11.5308,
    "longitude" : -54.3616,
    "capital" : NumberInt(0),
    "codigo_uf" : NumberInt(51),
    "siafi_id" : NumberInt(1048),
    "ddd" : NumberInt(66),
    "fuso_horario" : "America/Porto_Velho"
}
{
    "_id" : ObjectId("673e5ac6909e0611d9239f7c"),
    "index" : NumberInt(136),
    "Unnamed: 0" : NumberInt(5414),
    "codigo_ibge" : NumberInt(5108352),
    "nome" : "Vale de São Domingos",
    "latitude" : -15.286,
    "longitude" : -59.0683,
    "capital" : NumberInt(0),
    "codigo_uf" : NumberInt(51),
    "siafi_id" : NumberInt(1102),
    "ddd" : NumberInt(65),
    "fuso_horario" : "America/Porto_Velho"
}
{
    "_id" : ObjectId("673e5ac6909e0611d9239f7d"),
    "index" : NumberInt(137),
    "Unnamed: 0" : NumberInt(5453),
    "codigo_ibge" : NumberInt(5108402),
    "nome" : "Várzea Grande",
    "latitude" : -15.6458,
    "longitude" : -56.1322,
    "capital" : NumberInt(0),
    "codigo_uf" : NumberInt(51),
    "siafi_id" : NumberInt(9167),
    "ddd" : NumberInt(65),
    "fuso_horario" : "America/Porto_Velho"
}
{
    "_id" : ObjectId("673e5ac6909e0611d9239f7e"),
    "index" : NumberInt(138),
    "Unnamed: 0" : NumberInt(5465),
    "codigo_ibge" : NumberInt(5108501),
    "nome" : "Vera",
    "latitude" : -12.3017,
    "longitude" : -55.3045,
    "capital" : NumberInt(0),
    "codigo_uf" : NumberInt(51),
    "siafi_id" : NumberInt(9905),
    "ddd" : NumberInt(66),
    "fuso_horario" : "America/Porto_Velho"
}
{
    "_id" : ObjectId("673e5ac6909e0611d9239f7f"),
    "index" : NumberInt(139),
    "Unnamed: 0" : NumberInt(5503),
    "codigo_ibge" : NumberInt(5105507),
    "nome" : "Vila Bela da Santíssima Trindade",
    "latitude" : -15.0068,
    "longitude" : -59.9504,
    "capital" : NumberInt(0),
    "codigo_uf" : NumberInt(51),
    "siafi_id" : NumberInt(9109),
    "ddd" : NumberInt(65),
    "fuso_horario" : "America/Porto_Velho"
}
{
    "_id" : ObjectId("673e5ac6909e0611d9239f80"),
    "index" : NumberInt(140),
    "Unnamed: 0" : NumberInt(5514),
    "codigo_ibge" : NumberInt(5108600),
    "nome" : "Vila Rica",
    "latitude" : -10.0137,
    "longitude" : -51.1186,
    "capital" : NumberInt(0),
    "codigo_uf" : NumberInt(51),
    "siafi_id" : NumberInt(9897),
    "ddd" : NumberInt(66),
    "fuso_horario" : "America/Porto_Velho"
}
