{
    "_id" : ObjectId("673e5ac7909e0611d923a418"),
    "index" : NumberInt(0),
    "Unnamed: 0" : NumberInt(242),
    "codigo_ibge" : NumberInt(3300100),
    "nome" : "Angra dos Reis",
    "latitude" : -23.0011,
    "longitude" : -44.3196,
    "capital" : NumberInt(0),
    "codigo_uf" : NumberInt(33),
    "siafi_id" : NumberInt(5801),
    "ddd" : NumberInt(24),
    "fuso_horario" : "America/Sao_Paulo"
}
{
    "_id" : ObjectId("673e5ac7909e0611d923a419"),
    "index" : NumberInt(1),
    "Unnamed: 0" : NumberInt(275),
    "codigo_ibge" : NumberInt(3300159),
    "nome" : "Aperibé",
    "latitude" : -21.6252,
    "longitude" : -42.1017,
    "capital" : NumberInt(0),
    "codigo_uf" : NumberInt(33),
    "siafi_id" : NumberInt(2919),
    "ddd" : NumberInt(22),
    "fuso_horario" : "America/Sao_Paulo"
}
{
    "_id" : ObjectId("673e5ac7909e0611d923a41a"),
    "index" : NumberInt(2),
    "Unnamed: 0" : NumberInt(349),
    "codigo_ibge" : NumberInt(3300209),
    "nome" : "Araruama",
    "latitude" : -22.8697,
    "longitude" : -42.3326,
    "capital" : NumberInt(0),
    "codigo_uf" : NumberInt(33),
    "siafi_id" : NumberInt(5803),
    "ddd" : NumberInt(22),
    "fuso_horario" : "America/Sao_Paulo"
}
{
    "_id" : ObjectId("673e5ac7909e0611d923a41b"),
    "index" : NumberInt(3),
    "Unnamed: 0" : NumberInt(365),
    "codigo_ibge" : NumberInt(3300225),
    "nome" : "Areal",
    "latitude" : -22.2283,
    "longitude" : -43.1118,
    "capital" : NumberInt(0),
    "codigo_uf" : NumberInt(33),
    "siafi_id" : NumberInt(2925),
    "ddd" : NumberInt(24),
    "fuso_horario" : "America/Sao_Paulo"
}
{
    "_id" : ObjectId("673e5ac7909e0611d923a41c"),
    "index" : NumberInt(4),
    "Unnamed: 0" : NumberInt(384),
    "codigo_ibge" : NumberInt(3300233),
    "nome" : "Armação dos Búzios",
    "latitude" : -22.7528,
    "longitude" : -41.8846,
    "capital" : NumberInt(0),
    "codigo_uf" : NumberInt(33),
    "siafi_id" : NumberInt(770),
    "ddd" : NumberInt(22),
    "fuso_horario" : "America/Sao_Paulo"
}
{
    "_id" : ObjectId("673e5ac7909e0611d923a41d"),
    "index" : NumberInt(5),
    "Unnamed: 0" : NumberInt(391),
    "codigo_ibge" : NumberInt(3300258),
    "nome" : "Arraial do Cabo",
    "latitude" : -22.9774,
    "longitude" : -42.0267,
    "capital" : NumberInt(0),
    "codigo_uf" : NumberInt(33),
    "siafi_id" : NumberInt(5927),
    "ddd" : NumberInt(22),
    "fuso_horario" : "America/Sao_Paulo"
}
{
    "_id" : ObjectId("673e5ac7909e0611d923a41e"),
    "index" : NumberInt(6),
    "Unnamed: 0" : NumberInt(526),
    "codigo_ibge" : NumberInt(3300308),
    "nome" : "Barra do Piraí",
    "latitude" : -22.4715,
    "longitude" : -43.8269,
    "capital" : NumberInt(0),
    "codigo_uf" : NumberInt(33),
    "siafi_id" : NumberInt(5805),
    "ddd" : NumberInt(24),
    "fuso_horario" : "America/Sao_Paulo"
}
{
    "_id" : ObjectId("673e5ac7909e0611d923a41f"),
    "index" : NumberInt(7),
    "Unnamed: 0" : NumberInt(535),
    "codigo_ibge" : NumberInt(3300407),
    "nome" : "Barra Mansa",
    "latitude" : -22.5481,
    "longitude" : -44.1752,
    "capital" : NumberInt(0),
    "codigo_uf" : NumberInt(33),
    "siafi_id" : NumberInt(5807),
    "ddd" : NumberInt(24),
    "fuso_horario" : "America/Sao_Paulo"
}
{
    "_id" : ObjectId("673e5ac7909e0611d923a420"),
    "index" : NumberInt(8),
    "Unnamed: 0" : NumberInt(587),
    "codigo_ibge" : NumberInt(3300456),
    "nome" : "Belford Roxo",
    "latitude" : -22.764,
    "longitude" : -43.3992,
    "capital" : NumberInt(0),
    "codigo_uf" : NumberInt(33),
    "siafi_id" : NumberInt(2909),
    "ddd" : NumberInt(21),
    "fuso_horario" : "America/Sao_Paulo"
}
{
    "_id" : ObjectId("673e5ac7909e0611d923a421"),
    "index" : NumberInt(9),
    "Unnamed: 0" : NumberInt(668),
    "codigo_ibge" : NumberInt(3300506),
    "nome" : "Bom Jardim",
    "latitude" : -22.1545,
    "longitude" : -42.4251,
    "capital" : NumberInt(0),
    "codigo_uf" : NumberInt(33),
    "siafi_id" : NumberInt(5809),
    "ddd" : NumberInt(22),
    "fuso_horario" : "America/Sao_Paulo"
}
{
    "_id" : ObjectId("673e5ac7909e0611d923a422"),
    "index" : NumberInt(10),
    "Unnamed: 0" : NumberInt(687),
    "codigo_ibge" : NumberInt(3300605),
    "nome" : "Bom Jesus do Itabapoana",
    "latitude" : -21.1449,
    "longitude" : -41.6822,
    "capital" : NumberInt(0),
    "codigo_uf" : NumberInt(33),
    "siafi_id" : NumberInt(5811),
    "ddd" : NumberInt(22),
    "fuso_horario" : "America/Sao_Paulo"
}
{
    "_id" : ObjectId("673e5ac7909e0611d923a423"),
    "index" : NumberInt(11),
    "Unnamed: 0" : NumberInt(828),
    "codigo_ibge" : NumberInt(3300704),
    "nome" : "Cabo Frio",
    "latitude" : -22.8894,
    "longitude" : -42.0286,
    "capital" : NumberInt(0),
    "codigo_uf" : NumberInt(33),
    "siafi_id" : NumberInt(5813),
    "ddd" : NumberInt(22),
    "fuso_horario" : "America/Sao_Paulo"
}
{
    "_id" : ObjectId("673e5ac7909e0611d923a424"),
    "index" : NumberInt(12),
    "Unnamed: 0" : NumberInt(853),
    "codigo_ibge" : NumberInt(3300803),
    "nome" : "Cachoeiras de Macacu",
    "latitude" : -22.4658,
    "longitude" : -42.6523,
    "capital" : NumberInt(0),
    "codigo_uf" : NumberInt(33),
    "siafi_id" : NumberInt(5815),
    "ddd" : NumberInt(21),
    "fuso_horario" : "America/Sao_Paulo"
}
{
    "_id" : ObjectId("673e5ac7909e0611d923a425"),
    "index" : NumberInt(13),
    "Unnamed: 0" : NumberInt(929),
    "codigo_ibge" : NumberInt(3300902),
    "nome" : "Cambuci",
    "latitude" : -21.5691,
    "longitude" : -41.9187,
    "capital" : NumberInt(0),
    "codigo_uf" : NumberInt(33),
    "siafi_id" : NumberInt(5817),
    "ddd" : NumberInt(22),
    "fuso_horario" : "America/Sao_Paulo"
}
{
    "_id" : ObjectId("673e5ac7909e0611d923a426"),
    "index" : NumberInt(14),
    "Unnamed: 0" : NumberInt(991),
    "codigo_ibge" : NumberInt(3301009),
    "nome" : "Campos dos Goytacazes",
    "latitude" : -21.7622,
    "longitude" : -41.3181,
    "capital" : NumberInt(0),
    "codigo_uf" : NumberInt(33),
    "siafi_id" : NumberInt(5819),
    "ddd" : NumberInt(22),
    "fuso_horario" : "America/Sao_Paulo"
}
{
    "_id" : ObjectId("673e5ac7909e0611d923a427"),
    "index" : NumberInt(15),
    "Unnamed: 0" : NumberInt(1039),
    "codigo_ibge" : NumberInt(3301108),
    "nome" : "Cantagalo",
    "latitude" : -21.9797,
    "longitude" : -42.3664,
    "capital" : NumberInt(0),
    "codigo_uf" : NumberInt(33),
    "siafi_id" : NumberInt(5821),
    "ddd" : NumberInt(22),
    "fuso_horario" : "America/Sao_Paulo"
}
{
    "_id" : ObjectId("673e5ac7909e0611d923a428"),
    "index" : NumberInt(16),
    "Unnamed: 0" : NumberInt(1096),
    "codigo_ibge" : NumberInt(3300936),
    "nome" : "Carapebus",
    "latitude" : -22.1821,
    "longitude" : -41.663,
    "capital" : NumberInt(0),
    "codigo_uf" : NumberInt(33),
    "siafi_id" : NumberInt(772),
    "ddd" : NumberInt(22),
    "fuso_horario" : "America/Sao_Paulo"
}
{
    "_id" : ObjectId("673e5ac7909e0611d923a429"),
    "index" : NumberInt(17),
    "Unnamed: 0" : NumberInt(1108),
    "codigo_ibge" : NumberInt(3301157),
    "nome" : "Cardoso Moreira",
    "latitude" : -21.4846,
    "longitude" : -41.6165,
    "capital" : NumberInt(0),
    "codigo_uf" : NumberInt(33),
    "siafi_id" : NumberInt(2915),
    "ddd" : NumberInt(22),
    "fuso_horario" : "America/Sao_Paulo"
}
{
    "_id" : ObjectId("673e5ac7909e0611d923a42a"),
    "index" : NumberInt(18),
    "Unnamed: 0" : NumberInt(1127),
    "codigo_ibge" : NumberInt(3301207),
    "nome" : "Carmo",
    "latitude" : -21.931,
    "longitude" : -42.6046,
    "capital" : NumberInt(0),
    "codigo_uf" : NumberInt(33),
    "siafi_id" : NumberInt(5823),
    "ddd" : NumberInt(22),
    "fuso_horario" : "America/Sao_Paulo"
}
{
    "_id" : ObjectId("673e5ac7909e0611d923a42b"),
    "index" : NumberInt(19),
    "Unnamed: 0" : NumberInt(1164),
    "codigo_ibge" : NumberInt(3301306),
    "nome" : "Casimiro de Abreu",
    "latitude" : -22.4812,
    "longitude" : -42.2066,
    "capital" : NumberInt(0),
    "codigo_uf" : NumberInt(33),
    "siafi_id" : NumberInt(5825),
    "ddd" : NumberInt(22),
    "fuso_horario" : "America/Sao_Paulo"
}
{
    "_id" : ObjectId("673e5ac7909e0611d923a42c"),
    "index" : NumberInt(20),
    "Unnamed: 0" : NumberInt(1321),
    "codigo_ibge" : NumberInt(3300951),
    "nome" : "Comendador Levy Gasparian",
    "latitude" : -22.0404,
    "longitude" : -43.214,
    "capital" : NumberInt(0),
    "codigo_uf" : NumberInt(33),
    "siafi_id" : NumberInt(2927),
    "ddd" : NumberInt(24),
    "fuso_horario" : "America/Sao_Paulo"
}
{
    "_id" : ObjectId("673e5ac7909e0611d923a42d"),
    "index" : NumberInt(21),
    "Unnamed: 0" : NumberInt(1332),
    "codigo_ibge" : NumberInt(3301405),
    "nome" : "Conceição de Macabu",
    "latitude" : -22.0834,
    "longitude" : -41.8719,
    "capital" : NumberInt(0),
    "codigo_uf" : NumberInt(33),
    "siafi_id" : NumberInt(5827),
    "ddd" : NumberInt(22),
    "fuso_horario" : "America/Sao_Paulo"
}
{
    "_id" : ObjectId("673e5ac7909e0611d923a42e"),
    "index" : NumberInt(22),
    "Unnamed: 0" : NumberInt(1380),
    "codigo_ibge" : NumberInt(3301504),
    "nome" : "Cordeiro",
    "latitude" : -22.0267,
    "longitude" : -42.3648,
    "capital" : NumberInt(0),
    "codigo_uf" : NumberInt(33),
    "siafi_id" : NumberInt(5829),
    "ddd" : NumberInt(22),
    "fuso_horario" : "America/Sao_Paulo"
}
{
    "_id" : ObjectId("673e5ac7909e0611d923a42f"),
    "index" : NumberInt(23),
    "Unnamed: 0" : NumberInt(1632),
    "codigo_ibge" : NumberInt(3301603),
    "nome" : "Duas Barras",
    "latitude" : -22.0536,
    "longitude" : -42.5232,
    "capital" : NumberInt(0),
    "codigo_uf" : NumberInt(33),
    "siafi_id" : NumberInt(5831),
    "ddd" : NumberInt(22),
    "fuso_horario" : "America/Sao_Paulo"
}
{
    "_id" : ObjectId("673e5ac7909e0611d923a430"),
    "index" : NumberInt(24),
    "Unnamed: 0" : NumberInt(1637),
    "codigo_ibge" : NumberInt(3301702),
    "nome" : "Duque de Caxias",
    "latitude" : -22.7858,
    "longitude" : -43.3049,
    "capital" : NumberInt(0),
    "codigo_uf" : NumberInt(33),
    "siafi_id" : NumberInt(5833),
    "ddd" : NumberInt(21),
    "fuso_horario" : "America/Sao_Paulo"
}
{
    "_id" : ObjectId("673e5ac7909e0611d923a431"),
    "index" : NumberInt(25),
    "Unnamed: 0" : NumberInt(1668),
    "codigo_ibge" : NumberInt(3301801),
    "nome" : "Engenheiro Paulo de Frontin",
    "latitude" : -22.5498,
    "longitude" : -43.6827,
    "capital" : NumberInt(0),
    "codigo_uf" : NumberInt(33),
    "siafi_id" : NumberInt(5835),
    "ddd" : NumberInt(24),
    "fuso_horario" : "America/Sao_Paulo"
}
{
    "_id" : ObjectId("673e5ac7909e0611d923a432"),
    "index" : NumberInt(26),
    "Unnamed: 0" : NumberInt(1994),
    "codigo_ibge" : NumberInt(3301850),
    "nome" : "Guapimirim",
    "latitude" : -22.5347,
    "longitude" : -42.9895,
    "capital" : NumberInt(0),
    "codigo_uf" : NumberInt(33),
    "siafi_id" : NumberInt(2907),
    "ddd" : NumberInt(21),
    "fuso_horario" : "America/Sao_Paulo"
}
{
    "_id" : ObjectId("673e5ac7909e0611d923a433"),
    "index" : NumberInt(27),
    "Unnamed: 0" : NumberInt(2154),
    "codigo_ibge" : NumberInt(3301876),
    "nome" : "Iguaba Grande",
    "latitude" : -22.8495,
    "longitude" : -42.2299,
    "capital" : NumberInt(0),
    "codigo_uf" : NumberInt(33),
    "siafi_id" : NumberInt(774),
    "ddd" : NumberInt(22),
    "fuso_horario" : "America/Sao_Paulo"
}
{
    "_id" : ObjectId("673e5ac7909e0611d923a434"),
    "index" : NumberInt(28),
    "Unnamed: 0" : NumberInt(2294),
    "codigo_ibge" : NumberInt(3301900),
    "nome" : "Itaboraí",
    "latitude" : -22.7565,
    "longitude" : -42.8639,
    "capital" : NumberInt(0),
    "codigo_uf" : NumberInt(33),
    "siafi_id" : NumberInt(5837),
    "ddd" : NumberInt(21),
    "fuso_horario" : "America/Sao_Paulo"
}
{
    "_id" : ObjectId("673e5ac7909e0611d923a435"),
    "index" : NumberInt(29),
    "Unnamed: 0" : NumberInt(2309),
    "codigo_ibge" : NumberInt(3302007),
    "nome" : "Itaguaí",
    "latitude" : -22.8636,
    "longitude" : -43.7798,
    "capital" : NumberInt(0),
    "codigo_uf" : NumberInt(33),
    "siafi_id" : NumberInt(5839),
    "ddd" : NumberInt(21),
    "fuso_horario" : "America/Sao_Paulo"
}
{
    "_id" : ObjectId("673e5ac7909e0611d923a436"),
    "index" : NumberInt(30),
    "Unnamed: 0" : NumberInt(2333),
    "codigo_ibge" : NumberInt(3302056),
    "nome" : "Italva",
    "latitude" : -21.4296,
    "longitude" : -41.7014,
    "capital" : NumberInt(0),
    "codigo_uf" : NumberInt(33),
    "siafi_id" : NumberInt(5929),
    "ddd" : NumberInt(22),
    "fuso_horario" : "America/Sao_Paulo"
}
{
    "_id" : ObjectId("673e5ac7909e0611d923a437"),
    "index" : NumberInt(31),
    "Unnamed: 0" : NumberInt(2355),
    "codigo_ibge" : NumberInt(3302106),
    "nome" : "Itaocara",
    "latitude" : -21.6748,
    "longitude" : -42.0758,
    "capital" : NumberInt(0),
    "codigo_uf" : NumberInt(33),
    "siafi_id" : NumberInt(5841),
    "ddd" : NumberInt(22),
    "fuso_horario" : "America/Sao_Paulo"
}
{
    "_id" : ObjectId("673e5ac7909e0611d923a438"),
    "index" : NumberInt(32),
    "Unnamed: 0" : NumberInt(2369),
    "codigo_ibge" : NumberInt(3302205),
    "nome" : "Itaperuna",
    "latitude" : -21.1997,
    "longitude" : -41.8799,
    "capital" : NumberInt(0),
    "codigo_uf" : NumberInt(33),
    "siafi_id" : NumberInt(5843),
    "ddd" : NumberInt(22),
    "fuso_horario" : "America/Sao_Paulo"
}
{
    "_id" : ObjectId("673e5ac7909e0611d923a439"),
    "index" : NumberInt(33),
    "Unnamed: 0" : NumberInt(2412),
    "codigo_ibge" : NumberInt(3302254),
    "nome" : "Itatiaia",
    "latitude" : -22.4897,
    "longitude" : -44.5675,
    "capital" : NumberInt(0),
    "codigo_uf" : NumberInt(33),
    "siafi_id" : NumberInt(6003),
    "ddd" : NumberInt(24),
    "fuso_horario" : "America/Sao_Paulo"
}
{
    "_id" : ObjectId("673e5ac7909e0611d923a43a"),
    "index" : NumberInt(34),
    "Unnamed: 0" : NumberInt(2523),
    "codigo_ibge" : NumberInt(3302270),
    "nome" : "Japeri",
    "latitude" : -22.6435,
    "longitude" : -43.6602,
    "capital" : NumberInt(0),
    "codigo_uf" : NumberInt(33),
    "siafi_id" : NumberInt(2913),
    "ddd" : NumberInt(21),
    "fuso_horario" : "America/Sao_Paulo"
}
{
    "_id" : ObjectId("673e5ac7909e0611d923a43b"),
    "index" : NumberInt(35),
    "Unnamed: 0" : NumberInt(2720),
    "codigo_ibge" : NumberInt(3302304),
    "nome" : "Laje do Muriaé",
    "latitude" : -21.2091,
    "longitude" : -42.1271,
    "capital" : NumberInt(0),
    "codigo_uf" : NumberInt(33),
    "siafi_id" : NumberInt(5845),
    "ddd" : NumberInt(22),
    "fuso_horario" : "America/Sao_Paulo"
}
{
    "_id" : ObjectId("673e5ac7909e0611d923a43c"),
    "index" : NumberInt(36),
    "Unnamed: 0" : NumberInt(2826),
    "codigo_ibge" : NumberInt(3302403),
    "nome" : "Macaé",
    "latitude" : -22.3768,
    "longitude" : -41.7848,
    "capital" : NumberInt(0),
    "codigo_uf" : NumberInt(33),
    "siafi_id" : NumberInt(5847),
    "ddd" : NumberInt(22),
    "fuso_horario" : "America/Sao_Paulo"
}
{
    "_id" : ObjectId("673e5ac7909e0611d923a43d"),
    "index" : NumberInt(37),
    "Unnamed: 0" : NumberInt(2846),
    "codigo_ibge" : NumberInt(3302452),
    "nome" : "Macuco",
    "latitude" : -21.9813,
    "longitude" : -42.2533,
    "capital" : NumberInt(0),
    "codigo_uf" : NumberInt(33),
    "siafi_id" : NumberInt(776),
    "ddd" : NumberInt(22),
    "fuso_horario" : "America/Sao_Paulo"
}
{
    "_id" : ObjectId("673e5ac7909e0611d923a43e"),
    "index" : NumberInt(38),
    "Unnamed: 0" : NumberInt(2859),
    "codigo_ibge" : NumberInt(3302502),
    "nome" : "Magé",
    "latitude" : -22.6632,
    "longitude" : -43.0315,
    "capital" : NumberInt(0),
    "codigo_uf" : NumberInt(33),
    "siafi_id" : NumberInt(5849),
    "ddd" : NumberInt(21),
    "fuso_horario" : "America/Sao_Paulo"
}
{
    "_id" : ObjectId("673e5ac7909e0611d923a43f"),
    "index" : NumberInt(39),
    "Unnamed: 0" : NumberInt(2893),
    "codigo_ibge" : NumberInt(3302601),
    "nome" : "Mangaratiba",
    "latitude" : -22.9594,
    "longitude" : -44.0409,
    "capital" : NumberInt(0),
    "codigo_uf" : NumberInt(33),
    "siafi_id" : NumberInt(5851),
    "ddd" : NumberInt(21),
    "fuso_horario" : "America/Sao_Paulo"
}
{
    "_id" : ObjectId("673e5ac7909e0611d923a440"),
    "index" : NumberInt(40),
    "Unnamed: 0" : NumberInt(2958),
    "codigo_ibge" : NumberInt(3302700),
    "nome" : "Maricá",
    "latitude" : -22.9354,
    "longitude" : -42.8246,
    "capital" : NumberInt(0),
    "codigo_uf" : NumberInt(33),
    "siafi_id" : NumberInt(5853),
    "ddd" : NumberInt(21),
    "fuso_horario" : "America/Sao_Paulo"
}
{
    "_id" : ObjectId("673e5ac7909e0611d923a441"),
    "index" : NumberInt(41),
    "Unnamed: 0" : NumberInt(3042),
    "codigo_ibge" : NumberInt(3302809),
    "nome" : "Mendes",
    "latitude" : -22.5245,
    "longitude" : -43.7312,
    "capital" : NumberInt(0),
    "codigo_uf" : NumberInt(33),
    "siafi_id" : NumberInt(5855),
    "ddd" : NumberInt(24),
    "fuso_horario" : "America/Sao_Paulo"
}
{
    "_id" : ObjectId("673e5ac7909e0611d923a442"),
    "index" : NumberInt(42),
    "Unnamed: 0" : NumberInt(3050),
    "codigo_ibge" : NumberInt(3302858),
    "nome" : "Mesquita",
    "latitude" : -22.8028,
    "longitude" : -43.4601,
    "capital" : NumberInt(0),
    "codigo_uf" : NumberInt(33),
    "siafi_id" : NumberInt(1116),
    "ddd" : NumberInt(21),
    "fuso_horario" : "America/Sao_Paulo"
}
{
    "_id" : ObjectId("673e5ac7909e0611d923a443"),
    "index" : NumberInt(43),
    "Unnamed: 0" : NumberInt(3057),
    "codigo_ibge" : NumberInt(3302908),
    "nome" : "Miguel Pereira",
    "latitude" : -22.4572,
    "longitude" : -43.4803,
    "capital" : NumberInt(0),
    "codigo_uf" : NumberInt(33),
    "siafi_id" : NumberInt(5857),
    "ddd" : NumberInt(24),
    "fuso_horario" : "America/Sao_Paulo"
}
{
    "_id" : ObjectId("673e5ac7909e0611d923a444"),
    "index" : NumberInt(44),
    "Unnamed: 0" : NumberInt(3077),
    "codigo_ibge" : NumberInt(3303005),
    "nome" : "Miracema",
    "latitude" : -21.4148,
    "longitude" : -42.1938,
    "capital" : NumberInt(0),
    "codigo_uf" : NumberInt(33),
    "siafi_id" : NumberInt(5859),
    "ddd" : NumberInt(22),
    "fuso_horario" : "America/Sao_Paulo"
}
{
    "_id" : ObjectId("673e5ac7909e0611d923a445"),
    "index" : NumberInt(45),
    "Unnamed: 0" : NumberInt(3243),
    "codigo_ibge" : NumberInt(3303104),
    "nome" : "Natividade",
    "latitude" : -21.039,
    "longitude" : -41.9697,
    "capital" : NumberInt(0),
    "codigo_uf" : NumberInt(33),
    "siafi_id" : NumberInt(5861),
    "ddd" : NumberInt(22),
    "fuso_horario" : "America/Sao_Paulo"
}
{
    "_id" : ObjectId("673e5ac7909e0611d923a446"),
    "index" : NumberInt(46),
    "Unnamed: 0" : NumberInt(3265),
    "codigo_ibge" : NumberInt(3303203),
    "nome" : "Nilópolis",
    "latitude" : -22.8057,
    "longitude" : -43.4233,
    "capital" : NumberInt(0),
    "codigo_uf" : NumberInt(33),
    "siafi_id" : NumberInt(5863),
    "ddd" : NumberInt(21),
    "fuso_horario" : "America/Sao_Paulo"
}
{
    "_id" : ObjectId("673e5ac7909e0611d923a447"),
    "index" : NumberInt(47),
    "Unnamed: 0" : NumberInt(3272),
    "codigo_ibge" : NumberInt(3303302),
    "nome" : "Niterói",
    "latitude" : -22.8832,
    "longitude" : -43.1034,
    "capital" : NumberInt(0),
    "codigo_uf" : NumberInt(33),
    "siafi_id" : NumberInt(5865),
    "ddd" : NumberInt(21),
    "fuso_horario" : "America/Sao_Paulo"
}
{
    "_id" : ObjectId("673e5ac7909e0611d923a448"),
    "index" : NumberInt(48),
    "Unnamed: 0" : NumberInt(3324),
    "codigo_ibge" : NumberInt(3303401),
    "nome" : "Nova Friburgo",
    "latitude" : -22.2932,
    "longitude" : -42.5377,
    "capital" : NumberInt(0),
    "codigo_uf" : NumberInt(33),
    "siafi_id" : NumberInt(5867),
    "ddd" : NumberInt(22),
    "fuso_horario" : "America/Sao_Paulo"
}
{
    "_id" : ObjectId("673e5ac7909e0611d923a449"),
    "index" : NumberInt(49),
    "Unnamed: 0" : NumberInt(3331),
    "codigo_ibge" : NumberInt(3303500),
    "nome" : "Nova Iguaçu",
    "latitude" : -22.7556,
    "longitude" : -43.4603,
    "capital" : NumberInt(0),
    "codigo_uf" : NumberInt(33),
    "siafi_id" : NumberInt(5869),
    "ddd" : NumberInt(21),
    "fuso_horario" : "America/Sao_Paulo"
}
{
    "_id" : ObjectId("673e5ac7909e0611d923a44a"),
    "index" : NumberInt(50),
    "Unnamed: 0" : NumberInt(3566),
    "codigo_ibge" : NumberInt(3303609),
    "nome" : "Paracambi",
    "latitude" : -22.6078,
    "longitude" : -43.7108,
    "capital" : NumberInt(0),
    "codigo_uf" : NumberInt(33),
    "siafi_id" : NumberInt(5871),
    "ddd" : NumberInt(21),
    "fuso_horario" : "America/Sao_Paulo"
}
{
    "_id" : ObjectId("673e5ac7909e0611d923a44b"),
    "index" : NumberInt(51),
    "Unnamed: 0" : NumberInt(3573),
    "codigo_ibge" : NumberInt(3303708),
    "nome" : "Paraíba do Sul",
    "latitude" : -22.1585,
    "longitude" : -43.304,
    "capital" : NumberInt(0),
    "codigo_uf" : NumberInt(33),
    "siafi_id" : NumberInt(5873),
    "ddd" : NumberInt(24),
    "fuso_horario" : "America/Sao_Paulo"
}
{
    "_id" : ObjectId("673e5ac7909e0611d923a44c"),
    "index" : NumberInt(52),
    "Unnamed: 0" : NumberInt(3605),
    "codigo_ibge" : NumberInt(3303807),
    "nome" : "Paraty",
    "latitude" : -23.2221,
    "longitude" : -44.7175,
    "capital" : NumberInt(0),
    "codigo_uf" : NumberInt(33),
    "siafi_id" : NumberInt(5875),
    "ddd" : NumberInt(24),
    "fuso_horario" : "America/Sao_Paulo"
}
{
    "_id" : ObjectId("673e5ac7909e0611d923a44d"),
    "index" : NumberInt(53),
    "Unnamed: 0" : NumberInt(3654),
    "codigo_ibge" : NumberInt(3303856),
    "nome" : "Paty do Alferes",
    "latitude" : -22.4309,
    "longitude" : -43.4285,
    "capital" : NumberInt(0),
    "codigo_uf" : NumberInt(33),
    "siafi_id" : NumberInt(6005),
    "ddd" : NumberInt(24),
    "fuso_horario" : "America/Sao_Paulo"
}
{
    "_id" : ObjectId("673e5ac7909e0611d923a44e"),
    "index" : NumberInt(54),
    "Unnamed: 0" : NumberInt(3765),
    "codigo_ibge" : NumberInt(3303906),
    "nome" : "Petrópolis",
    "latitude" : -22.52,
    "longitude" : -43.1926,
    "capital" : NumberInt(0),
    "codigo_uf" : NumberInt(33),
    "siafi_id" : NumberInt(5877),
    "ddd" : NumberInt(24),
    "fuso_horario" : "America/Sao_Paulo"
}
{
    "_id" : ObjectId("673e5ac7909e0611d923a44f"),
    "index" : NumberInt(55),
    "Unnamed: 0" : NumberInt(3812),
    "codigo_ibge" : NumberInt(3303955),
    "nome" : "Pinheiral",
    "latitude" : -22.5172,
    "longitude" : -44.0022,
    "capital" : NumberInt(0),
    "codigo_uf" : NumberInt(33),
    "siafi_id" : NumberInt(778),
    "ddd" : NumberInt(24),
    "fuso_horario" : "America/Sao_Paulo"
}
{
    "_id" : ObjectId("673e5ac7909e0611d923a450"),
    "index" : NumberInt(56),
    "Unnamed: 0" : NumberInt(3831),
    "codigo_ibge" : NumberInt(3304003),
    "nome" : "Piraí",
    "latitude" : -22.6215,
    "longitude" : -43.9081,
    "capital" : NumberInt(0),
    "codigo_uf" : NumberInt(33),
    "siafi_id" : NumberInt(5879),
    "ddd" : NumberInt(24),
    "fuso_horario" : "America/Sao_Paulo"
}
{
    "_id" : ObjectId("673e5ac7909e0611d923a451"),
    "index" : NumberInt(57),
    "Unnamed: 0" : NumberInt(3936),
    "codigo_ibge" : NumberInt(3304102),
    "nome" : "Porciúncula",
    "latitude" : -20.9632,
    "longitude" : -42.0465,
    "capital" : NumberInt(0),
    "codigo_uf" : NumberInt(33),
    "siafi_id" : NumberInt(5881),
    "ddd" : NumberInt(22),
    "fuso_horario" : "America/Sao_Paulo"
}
{
    "_id" : ObjectId("673e5ac7909e0611d923a452"),
    "index" : NumberInt(58),
    "Unnamed: 0" : NumberInt(3971),
    "codigo_ibge" : NumberInt(3304110),
    "nome" : "Porto Real",
    "latitude" : -22.4175,
    "longitude" : -44.2952,
    "capital" : NumberInt(0),
    "codigo_uf" : NumberInt(33),
    "siafi_id" : NumberInt(780),
    "ddd" : NumberInt(24),
    "fuso_horario" : "America/Sao_Paulo"
}
{
    "_id" : ObjectId("673e5ac7909e0611d923a453"),
    "index" : NumberInt(59),
    "Unnamed: 0" : NumberInt(4063),
    "codigo_ibge" : NumberInt(3304128),
    "nome" : "Quatis",
    "latitude" : -22.4045,
    "longitude" : -44.2597,
    "capital" : NumberInt(0),
    "codigo_uf" : NumberInt(33),
    "siafi_id" : NumberInt(2923),
    "ddd" : NumberInt(24),
    "fuso_horario" : "America/Sao_Paulo"
}
{
    "_id" : ObjectId("673e5ac7909e0611d923a454"),
    "index" : NumberInt(60),
    "Unnamed: 0" : NumberInt(4072),
    "codigo_ibge" : NumberInt(3304144),
    "nome" : "Queimados",
    "latitude" : -22.7102,
    "longitude" : -43.5518,
    "capital" : NumberInt(0),
    "codigo_uf" : NumberInt(33),
    "siafi_id" : NumberInt(2911),
    "ddd" : NumberInt(21),
    "fuso_horario" : "America/Sao_Paulo"
}
{
    "_id" : ObjectId("673e5ac7909e0611d923a455"),
    "index" : NumberInt(61),
    "Unnamed: 0" : NumberInt(4086),
    "codigo_ibge" : NumberInt(3304151),
    "nome" : "Quissamã",
    "latitude" : -22.1031,
    "longitude" : -41.4693,
    "capital" : NumberInt(0),
    "codigo_uf" : NumberInt(33),
    "siafi_id" : NumberInt(6007),
    "ddd" : NumberInt(22),
    "fuso_horario" : "America/Sao_Paulo"
}
{
    "_id" : ObjectId("673e5ac7909e0611d923a456"),
    "index" : NumberInt(62),
    "Unnamed: 0" : NumberInt(4128),
    "codigo_ibge" : NumberInt(3304201),
    "nome" : "Resende",
    "latitude" : -22.4705,
    "longitude" : -44.4509,
    "capital" : NumberInt(0),
    "codigo_uf" : NumberInt(33),
    "siafi_id" : NumberInt(5883),
    "ddd" : NumberInt(24),
    "fuso_horario" : "America/Sao_Paulo"
}
{
    "_id" : ObjectId("673e5ac7909e0611d923a457"),
    "index" : NumberInt(63),
    "Unnamed: 0" : NumberInt(4190),
    "codigo_ibge" : NumberInt(3304300),
    "nome" : "Rio Bonito",
    "latitude" : -22.7181,
    "longitude" : -42.6276,
    "capital" : NumberInt(0),
    "codigo_uf" : NumberInt(33),
    "siafi_id" : NumberInt(5885),
    "ddd" : NumberInt(21),
    "fuso_horario" : "America/Sao_Paulo"
}
{
    "_id" : ObjectId("673e5ac7909e0611d923a458"),
    "index" : NumberInt(64),
    "Unnamed: 0" : NumberInt(4198),
    "codigo_ibge" : NumberInt(3304409),
    "nome" : "Rio Claro",
    "latitude" : -22.72,
    "longitude" : -44.1419,
    "capital" : NumberInt(0),
    "codigo_uf" : NumberInt(33),
    "siafi_id" : NumberInt(5887),
    "ddd" : NumberInt(24),
    "fuso_horario" : "America/Sao_Paulo"
}
{
    "_id" : ObjectId("673e5ac7909e0611d923a459"),
    "index" : NumberInt(65),
    "Unnamed: 0" : NumberInt(4203),
    "codigo_ibge" : NumberInt(3304508),
    "nome" : "Rio das Flores",
    "latitude" : -22.1692,
    "longitude" : -43.5856,
    "capital" : NumberInt(0),
    "codigo_uf" : NumberInt(33),
    "siafi_id" : NumberInt(5889),
    "ddd" : NumberInt(24),
    "fuso_horario" : "America/Sao_Paulo"
}
{
    "_id" : ObjectId("673e5ac7909e0611d923a45a"),
    "index" : NumberInt(66),
    "Unnamed: 0" : NumberInt(4204),
    "codigo_ibge" : NumberInt(3304524),
    "nome" : "Rio das Ostras",
    "latitude" : -22.5174,
    "longitude" : -41.9475,
    "capital" : NumberInt(0),
    "codigo_uf" : NumberInt(33),
    "siafi_id" : NumberInt(2921),
    "ddd" : NumberInt(22),
    "fuso_horario" : "America/Sao_Paulo"
}
{
    "_id" : ObjectId("673e5ac7909e0611d923a45b"),
    "index" : NumberInt(67),
    "Unnamed: 0" : NumberInt(4207),
    "codigo_ibge" : NumberInt(3304557),
    "nome" : "Rio de Janeiro",
    "latitude" : -22.9129,
    "longitude" : -43.2003,
    "capital" : NumberInt(1),
    "codigo_uf" : NumberInt(33),
    "siafi_id" : NumberInt(6001),
    "ddd" : NumberInt(21),
    "fuso_horario" : "America/Sao_Paulo"
}
{
    "_id" : ObjectId("673e5ac7909e0611d923a45c"),
    "index" : NumberInt(68),
    "Unnamed: 0" : NumberInt(4445),
    "codigo_ibge" : NumberInt(3304607),
    "nome" : "Santa Maria Madalena",
    "latitude" : -21.9547,
    "longitude" : -42.0098,
    "capital" : NumberInt(0),
    "codigo_uf" : NumberInt(33),
    "siafi_id" : NumberInt(5891),
    "ddd" : NumberInt(22),
    "fuso_horario" : "America/Sao_Paulo"
}
{
    "_id" : ObjectId("673e5ac7909e0611d923a45d"),
    "index" : NumberInt(69),
    "Unnamed: 0" : NumberInt(4546),
    "codigo_ibge" : NumberInt(3304706),
    "nome" : "Santo Antônio de Pádua",
    "latitude" : -21.541,
    "longitude" : -42.1832,
    "capital" : NumberInt(0),
    "codigo_uf" : NumberInt(33),
    "siafi_id" : NumberInt(5893),
    "ddd" : NumberInt(22),
    "fuso_horario" : "America/Sao_Paulo"
}
{
    "_id" : ObjectId("673e5ac7909e0611d923a45e"),
    "index" : NumberInt(70),
    "Unnamed: 0" : NumberInt(4637),
    "codigo_ibge" : NumberInt(3304805),
    "nome" : "São Fidélis",
    "latitude" : -21.6551,
    "longitude" : -41.756,
    "capital" : NumberInt(0),
    "codigo_uf" : NumberInt(33),
    "siafi_id" : NumberInt(5895),
    "ddd" : NumberInt(22),
    "fuso_horario" : "America/Sao_Paulo"
}
{
    "_id" : ObjectId("673e5ac7909e0611d923a45f"),
    "index" : NumberInt(71),
    "Unnamed: 0" : NumberInt(4645),
    "codigo_ibge" : NumberInt(3304755),
    "nome" : "São Francisco de Itabapoana",
    "latitude" : -21.4702,
    "longitude" : -41.1091,
    "capital" : NumberInt(0),
    "codigo_uf" : NumberInt(33),
    "siafi_id" : NumberInt(782),
    "ddd" : NumberInt(22),
    "fuso_horario" : "America/Sao_Paulo"
}
{
    "_id" : ObjectId("673e5ac7909e0611d923a460"),
    "index" : NumberInt(72),
    "Unnamed: 0" : NumberInt(4667),
    "codigo_ibge" : NumberInt(3304904),
    "nome" : "São Gonçalo",
    "latitude" : -22.8268,
    "longitude" : -43.0634,
    "capital" : NumberInt(0),
    "codigo_uf" : NumberInt(33),
    "siafi_id" : NumberInt(5897),
    "ddd" : NumberInt(21),
    "fuso_horario" : "America/Sao_Paulo"
}
{
    "_id" : ObjectId("673e5ac7909e0611d923a461"),
    "index" : NumberInt(73),
    "Unnamed: 0" : NumberInt(4688),
    "codigo_ibge" : NumberInt(3305000),
    "nome" : "São João da Barra",
    "latitude" : -21.638,
    "longitude" : -41.0446,
    "capital" : NumberInt(0),
    "codigo_uf" : NumberInt(33),
    "siafi_id" : NumberInt(5899),
    "ddd" : NumberInt(22),
    "fuso_horario" : "America/Sao_Paulo"
}
{
    "_id" : ObjectId("673e5ac7909e0611d923a462"),
    "index" : NumberInt(74),
    "Unnamed: 0" : NumberInt(4703),
    "codigo_ibge" : NumberInt(3305109),
    "nome" : "São João de Meriti",
    "latitude" : -22.8058,
    "longitude" : -43.3729,
    "capital" : NumberInt(0),
    "codigo_uf" : NumberInt(33),
    "siafi_id" : NumberInt(5901),
    "ddd" : NumberInt(21),
    "fuso_horario" : "America/Sao_Paulo"
}
{
    "_id" : ObjectId("673e5ac7909e0611d923a463"),
    "index" : NumberInt(75),
    "Unnamed: 0" : NumberInt(4761),
    "codigo_ibge" : NumberInt(3305133),
    "nome" : "São José de Ubá",
    "latitude" : -21.3661,
    "longitude" : -41.9511,
    "capital" : NumberInt(0),
    "codigo_uf" : NumberInt(33),
    "siafi_id" : NumberInt(784),
    "ddd" : NumberInt(22),
    "fuso_horario" : "America/Sao_Paulo"
}
{
    "_id" : ObjectId("673e5ac7909e0611d923a464"),
    "index" : NumberInt(76),
    "Unnamed: 0" : NumberInt(4792),
    "codigo_ibge" : NumberInt(3305158),
    "nome" : "São José do Vale do Rio Preto",
    "latitude" : -22.1525,
    "longitude" : -42.9327,
    "capital" : NumberInt(0),
    "codigo_uf" : NumberInt(33),
    "siafi_id" : NumberInt(6009),
    "ddd" : NumberInt(24),
    "fuso_horario" : "America/Sao_Paulo"
}
{
    "_id" : ObjectId("673e5ac7909e0611d923a465"),
    "index" : NumberInt(77),
    "Unnamed: 0" : NumberInt(4860),
    "codigo_ibge" : NumberInt(3305208),
    "nome" : "São Pedro da Aldeia",
    "latitude" : -22.8429,
    "longitude" : -42.1026,
    "capital" : NumberInt(0),
    "codigo_uf" : NumberInt(33),
    "siafi_id" : NumberInt(5903),
    "ddd" : NumberInt(22),
    "fuso_horario" : "America/Sao_Paulo"
}
{
    "_id" : ObjectId("673e5ac7909e0611d923a466"),
    "index" : NumberInt(78),
    "Unnamed: 0" : NumberInt(4894),
    "codigo_ibge" : NumberInt(3305307),
    "nome" : "São Sebastião do Alto",
    "latitude" : -21.9578,
    "longitude" : -42.1328,
    "capital" : NumberInt(0),
    "codigo_uf" : NumberInt(33),
    "siafi_id" : NumberInt(5905),
    "ddd" : NumberInt(22),
    "fuso_horario" : "America/Sao_Paulo"
}
{
    "_id" : ObjectId("673e5ac7909e0611d923a467"),
    "index" : NumberInt(79),
    "Unnamed: 0" : NumberInt(4933),
    "codigo_ibge" : NumberInt(3305406),
    "nome" : "Sapucaia",
    "latitude" : -21.9949,
    "longitude" : -42.9142,
    "capital" : NumberInt(0),
    "codigo_uf" : NumberInt(33),
    "siafi_id" : NumberInt(5907),
    "ddd" : NumberInt(24),
    "fuso_horario" : "America/Sao_Paulo"
}
{
    "_id" : ObjectId("673e5ac7909e0611d923a468"),
    "index" : NumberInt(80),
    "Unnamed: 0" : NumberInt(4935),
    "codigo_ibge" : NumberInt(3305505),
    "nome" : "Saquarema",
    "latitude" : -22.9292,
    "longitude" : -42.5099,
    "capital" : NumberInt(0),
    "codigo_uf" : NumberInt(33),
    "siafi_id" : NumberInt(5909),
    "ddd" : NumberInt(22),
    "fuso_horario" : "America/Sao_Paulo"
}
{
    "_id" : ObjectId("673e5ac7909e0611d923a469"),
    "index" : NumberInt(81),
    "Unnamed: 0" : NumberInt(4991),
    "codigo_ibge" : NumberInt(3305554),
    "nome" : "Seropédica",
    "latitude" : -22.7526,
    "longitude" : -43.7155,
    "capital" : NumberInt(0),
    "codigo_uf" : NumberInt(33),
    "siafi_id" : NumberInt(786),
    "ddd" : NumberInt(21),
    "fuso_horario" : "America/Sao_Paulo"
}
{
    "_id" : ObjectId("673e5ac7909e0611d923a46a"),
    "index" : NumberInt(82),
    "Unnamed: 0" : NumberInt(5046),
    "codigo_ibge" : NumberInt(3305604),
    "nome" : "Silva Jardim",
    "latitude" : -22.6574,
    "longitude" : -42.3961,
    "capital" : NumberInt(0),
    "codigo_uf" : NumberInt(33),
    "siafi_id" : NumberInt(5911),
    "ddd" : NumberInt(22),
    "fuso_horario" : "America/Sao_Paulo"
}
{
    "_id" : ObjectId("673e5ac7909e0611d923a46b"),
    "index" : NumberInt(83),
    "Unnamed: 0" : NumberInt(5102),
    "codigo_ibge" : NumberInt(3305703),
    "nome" : "Sumidouro",
    "latitude" : -22.0485,
    "longitude" : -42.6761,
    "capital" : NumberInt(0),
    "codigo_uf" : NumberInt(33),
    "siafi_id" : NumberInt(5913),
    "ddd" : NumberInt(22),
    "fuso_horario" : "America/Sao_Paulo"
}
{
    "_id" : ObjectId("673e5ac7909e0611d923a46c"),
    "index" : NumberInt(84),
    "Unnamed: 0" : NumberInt(5143),
    "codigo_ibge" : NumberInt(3305752),
    "nome" : "Tanguá",
    "latitude" : -22.7423,
    "longitude" : -42.7202,
    "capital" : NumberInt(0),
    "codigo_uf" : NumberInt(33),
    "siafi_id" : NumberInt(788),
    "ddd" : NumberInt(21),
    "fuso_horario" : "America/Sao_Paulo"
}
{
    "_id" : ObjectId("673e5ac7909e0611d923a46d"),
    "index" : NumberInt(85),
    "Unnamed: 0" : NumberInt(5211),
    "codigo_ibge" : NumberInt(3305802),
    "nome" : "Teresópolis",
    "latitude" : -22.4165,
    "longitude" : -42.9752,
    "capital" : NumberInt(0),
    "codigo_uf" : NumberInt(33),
    "siafi_id" : NumberInt(5915),
    "ddd" : NumberInt(21),
    "fuso_horario" : "America/Sao_Paulo"
}
{
    "_id" : ObjectId("673e5ac7909e0611d923a46e"),
    "index" : NumberInt(86),
    "Unnamed: 0" : NumberInt(5273),
    "codigo_ibge" : NumberInt(3305901),
    "nome" : "Trajano de Moraes",
    "latitude" : -22.0638,
    "longitude" : -42.0643,
    "capital" : NumberInt(0),
    "codigo_uf" : NumberInt(33),
    "siafi_id" : NumberInt(5917),
    "ddd" : NumberInt(22),
    "fuso_horario" : "America/Sao_Paulo"
}
{
    "_id" : ObjectId("673e5ac7909e0611d923a46f"),
    "index" : NumberInt(87),
    "Unnamed: 0" : NumberInt(5293),
    "codigo_ibge" : NumberInt(3306008),
    "nome" : "Três Rios",
    "latitude" : -22.1165,
    "longitude" : -43.2185,
    "capital" : NumberInt(0),
    "codigo_uf" : NumberInt(33),
    "siafi_id" : NumberInt(5919),
    "ddd" : NumberInt(24),
    "fuso_horario" : "America/Sao_Paulo"
}
{
    "_id" : ObjectId("673e5ac7909e0611d923a470"),
    "index" : NumberInt(88),
    "Unnamed: 0" : NumberInt(5421),
    "codigo_ibge" : NumberInt(3306107),
    "nome" : "Valença",
    "latitude" : -22.2445,
    "longitude" : -43.7129,
    "capital" : NumberInt(0),
    "codigo_uf" : NumberInt(33),
    "siafi_id" : NumberInt(5921),
    "ddd" : NumberInt(24),
    "fuso_horario" : "America/Sao_Paulo"
}
{
    "_id" : ObjectId("673e5ac7909e0611d923a471"),
    "index" : NumberInt(89),
    "Unnamed: 0" : NumberInt(5444),
    "codigo_ibge" : NumberInt(3306156),
    "nome" : "Varre-Sai",
    "latitude" : -20.9276,
    "longitude" : -41.8701,
    "capital" : NumberInt(0),
    "codigo_uf" : NumberInt(33),
    "siafi_id" : NumberInt(2917),
    "ddd" : NumberInt(22),
    "fuso_horario" : "America/Sao_Paulo"
}
{
    "_id" : ObjectId("673e5ac7909e0611d923a472"),
    "index" : NumberInt(90),
    "Unnamed: 0" : NumberInt(5458),
    "codigo_ibge" : NumberInt(3306206),
    "nome" : "Vassouras",
    "latitude" : -22.4059,
    "longitude" : -43.6686,
    "capital" : NumberInt(0),
    "codigo_uf" : NumberInt(33),
    "siafi_id" : NumberInt(5923),
    "ddd" : NumberInt(24),
    "fuso_horario" : "America/Sao_Paulo"
}
{
    "_id" : ObjectId("673e5ac7909e0611d923a473"),
    "index" : NumberInt(91),
    "Unnamed: 0" : NumberInt(5544),
    "codigo_ibge" : NumberInt(3306305),
    "nome" : "Volta Redonda",
    "latitude" : -22.5202,
    "longitude" : -44.0996,
    "capital" : NumberInt(0),
    "codigo_uf" : NumberInt(33),
    "siafi_id" : NumberInt(5925),
    "ddd" : NumberInt(24),
    "fuso_horario" : "America/Sao_Paulo"
}
